station_id,station_guid,easting,northing,catchment_area,station_name,river_name,date_opened,date_closed,wiski_id,river_level_tool_id,rfa_station_id,station_status,station_status_reason,longitude,latitude,utm_x,utm_y,anglian,dee,humber,north_west,northumbria,severn,solway_tweed,south_east,south_west,thames
052d0819-2a32-47df-9b99-c243c9c8235b,052d0819-2a32-47df-9b99-c243c9c8235b,581271,208591,,Ulting Sarasota,River Chelmer,2008-10-31,,037048U,,,Active,"",0.624437,51.746683,750182.691567047,5739081.84860831,1,0,0,0,0,0,0,0,0,0
48513a18-e485-4317-ae92-93bf4f7f3e54,48513a18-e485-4317-ae92-93bf4f7f3e54,304007,139460,36.3,Beggearn Huish,Washford River,1967-01-01,,510810,3089,51003,Active,"",-3.373695,51.146322,473860.573124691,5666163.03599927,0,0,0,0,0,0,0,0,1,0
f22f80f8-1bb0-4e77-b225-291487060c6f,f22f80f8-1bb0-4e77-b225-291487060c6f,447677,402022,311,Adwick,River Dearne,1956-10-29,,F0803,8002,27030,Active,"",-1.282505,53.512713,613886.689239283,5930680.6203792,0,0,1,0,0,0,0,0,0,0
95a1245a-5329-4a2b-9024-d70ebe9707df,95a1245a-5329-4a2b-9024-d70ebe9707df,427271,255587,102,Wellesbourne,River Dene,1976-05-12,,2048,2029,54048,Active,"",-1.602416,52.197839,595519.025205363,5783963.36188418,0,0,0,0,0,1,0,0,0,1
3c4d4f78-2d0e-474a-b884-65a9daca18fb,3c4d4f78-2d0e-474a-b884-65a9daca18fb,293602,101602,600.9,Thorverton,River Exe,1956-04-30,,SS90F011,3260,45001,Active,"",-3.511302,50.804172,463971.425424664,5628173.02930604,0,0,0,0,0,0,0,0,1,0
959f3e4f-bb6e-4f4a-8082-0157eea99482,959f3e4f-bb6e-4f4a-8082-0157eea99482,345173,163064,,Iwood,Congresbury Yeo,1973-03-12,,521410,3060,52017,Active,"",-2.78889,51.363977,514697.296017343,5690322.92270209,0,0,0,0,0,1,0,0,0,1
fbecd84a-70b6-4725-80ba-67c7adb3cae7,fbecd84a-70b6-4725-80ba-67c7adb3cae7,330639,497190,,Coniston Upstream,Church Beck,2003-12-05,,737529,,,Active,"",-3.069004,54.365471,495516.531366788,6024187.57780332,0,0,0,1,0,0,0,0,0,0
70f658a0-3d32-47db-a97c-ed5e25da46f2,70f658a0-3d32-47db-a97c-ed5e25da46f2,397397,291756,45.8,Sheepwash,River Tame,1985-10-28,,4101,9071,28101,"",Data Temporarily Suspended,-2.039788,52.523665,565146.344685009,5819717.56266442,0,0,1,0,0,0,0,0,0,0
f865f658-a32e-4601-b61e-e5c2f02c578a,f865f658-a32e-4601-b61e-e5c2f02c578a,503210,387470,27.2,Toft Newton- Ancholme,River Ancholme,1974-03-07,,029009,,29009,Active,"",-0.450095,53.374006,669626.536870651,5916907.03869378,0,0,1,0,0,0,0,0,0,0
d031ef9f-4e50-4c68-aa43-9b5589c32874,d031ef9f-4e50-4c68-aa43-9b5589c32874,436442,510549,,Low Moor,River Tees,1969-09-01,,F3606,8129,25009,Active,"",-1.438958,54.488963,601118.647220742,6039047.55387042,0,0,0,0,1,0,0,0,0,0
825e7c96-b693-4366-8e39-a7fc587d442a,825e7c96-b693-4366-8e39-a7fc587d442a,440828,425695,,Methley,River Calder,1961-07-07,,F1301,8134,27079,Active,"",-1.382684,53.726053,606704.902960652,5954257.16208347,0,0,1,0,0,0,0,0,0,0
cf8c9032-6d1d-473d-b304-3837260188cb,cf8c9032-6d1d-473d-b304-3837260188cb,325235,322445,229,Llanyblodwel,"",1973-05-11,,2038,2025,54038,Active,"",-3.110219,52.794359,492568.066674775,5849400.75355127,0,0,0,0,0,1,0,0,0,1
d7896c1f-b892-4272-b78a-9bb4d5a53c5b,d7896c1f-b892-4272-b78a-9bb4d5a53c5b,424241,421436,,Dewsbury,River Calder,1996-03-31,,F1306,8066,27098,Active,"",-1.6344,53.688804,590178.201198258,5949764.79555429,0,0,1,0,0,0,0,0,0,0
406a65e7-477b-4964-ba9b-47e452eca166,406a65e7-477b-4964-ba9b-47e452eca166,367172,363508,622,Ashbrook,River Weaver,1977-12-29,,680504,5007,68001,Active,"",-2.492504,53.167657,533926.042253499,5891041.51105714,0,0,0,1,0,0,0,0,0,0
68903310-c62d-4434-a7d4-96e766335179,68903310-c62d-4434-a7d4-96e766335179,398235,351975,139,Basford Bridge,River Churnet,1975-01-01,,4061,2127,28061,Active,"",-2.027783,53.065004,565146.942390294,5879943.54314949,0,0,1,0,0,0,0,0,0,0
975b896f-1d6a-4fb2-a888-794eb6045ee8,975b896f-1d6a-4fb2-a888-794eb6045ee8,374463,233229,18.3,Bromsberrow,Glynch Brook,1996-08-13,,2607,,,Active,"",-2.373352,51.996906,543022.485820332,5760879.47991475,0,0,0,0,0,1,0,0,0,1
ddb6b643-06b0-4e48-b74c-f12f6f946968,ddb6b643-06b0-4e48-b74c-f12f6f946968,193730,50600,,Trenowth,River Fal,1998-01-01,,S19589_FW,3164,48012,Active,"",-4.898882,50.319157,364820.254988541,5575841.27462258,0,0,0,0,0,0,0,0,1,0
3eb60c5b-875e-46e7-b8d9-b1208d023bc4,3eb60c5b-875e-46e7-b8d9-b1208d023bc4,571789,139960,138,Stonebridge,River Teise,1961-10-01,,453230001,1087,40009,Active,"",0.453946,51.133145,741636.666209054,5670305.15991416,0,0,0,0,0,0,0,0,0,0
b5d958ce-f342-427a-a32d-199bc52b0ee2,b5d958ce-f342-427a-a32d-199bc52b0ee2,524080,360970,,Fulsby,River Bain,1962-10-01,,030003,,30003,Active,"",-0.14688,53.131446,690869.864713324,5890696.24540971,1,0,0,0,0,0,0,0,0,0
15eae722-7f1f-41cb-a93e-2acdeca10a0a,15eae722-7f1f-41cb-a93e-2acdeca10a0a,480435,360565,8231,North Muskham,River Trent,1969-10-03,,4022,2109,28022,Active,"",-0.799124,53.13617,647226.364800851,5889681.28675885,0,0,1,0,0,0,0,0,0,0
bf679fd0-8d8f-4815-a569-ec798d81f324,bf679fd0-8d8f-4815-a569-ec798d81f324,567088,219360,132.1,Felsted,River Chelmer,1970-05-01,,037020,6146,37020,Active,"",0.424377,51.847826,735848.441428264,5749658.43418821,1,0,0,0,0,0,0,0,0,0
78a37028-e8de-4835-825a-6957d26306cf,78a37028-e8de-4835-825a-6957d26306cf,537040,198870,41.5,Ordnance Road,"",1973-04-01,,5339TH,7365,38024,Active,"",-0.019618,51.671889,706075.932080279,5728752.07572683,0,0,0,0,0,0,0,0,0,0
adec4dd7-9cdb-4c58-8fc3-2e509aecfbcd,adec4dd7-9cdb-4c58-8fc3-2e509aecfbcd,362834,388342,2030,Westy Flow,River Mersey,1989-03-11,,693976,5149,69037,Active,"",-2.560304,53.390586,529241.09362458,5915811.49969982,0,0,0,1,0,0,0,0,0,0
99d4811b-5177-469a-b217-732a8f1bdd13,99d4811b-5177-469a-b217-732a8f1bdd13,423745,328845,883.2,Marston On Dove,River Dove,1961-07-28,,4018,2107,28018,Active,"",-1.648793,52.856568,590977.951422694,5857170.29366903,0,0,1,0,0,0,0,0,0,0
b260a0a3-aaeb-40cf-b8cf-b1024a2db5d7,b260a0a3-aaeb-40cf-b8cf-b1024a2db5d7,366102,85161,,Upwey,River Wey,1989-06-16,,446010,3287,,Active,"",-2.480985,50.665123,536680.505755421,5612714.87480592,0,0,0,0,0,0,0,0,1,0
284ea1dd-ee32-47ef-8cbf-4b001775f8ed,284ea1dd-ee32-47ef-8cbf-4b001775f8ed,568340,126330,92.7,Crowhurst Weir,River Rother,1981-12-23,,556500002,,,Active,"",0.398356,51.011714,738372.177929027,5656625.15923995,0,0,0,0,0,0,0,1,0,0
544f2ad9-d14f-403c-bb42-abd8d5acfc8d,544f2ad9-d14f-403c-bb42-abd8d5acfc8d,508800,348300,,Leasingham Mill,River Slea,1974-02-13,,030006,6064,30006,Active,"",-0.379436,53.020935,675765.043089429,5877811.36491308,1,0,0,0,0,0,0,0,0,0
9cee5ed4-ddd7-4903-8f74-00f52a78c05c,9cee5ed4-ddd7-4903-8f74-00f52a78c05c,365254,343039,207,Audlem,River Weaver,1953-10-01,,680301,5009,68005,Active,"",-2.518975,52.983547,532293.932902742,5870548.51140832,0,0,0,1,0,0,0,0,0,0
b23821f8-f8e5-4b3d-a821-70913abe37cf,b23821f8-f8e5-4b3d-a821-70913abe37cf,484462,434397,,Wholsea Grange,"",1989-01-01,,F3402,9147,26011,Active,"",-0.719127,53.799018,650217.447586707,5963573.99544526,0,0,1,0,0,0,0,0,0,0
6f727c14-422c-4b7f-922d-b430d9aa07a2,6f727c14-422c-4b7f-922d-b430d9aa07a2,521705,189500,29,Colindale,Silk Stream,1973-12-01,,3829TH,7286,39049,Active,"",-0.244516,51.591209,690866.936705369,5719170.54767184,0,0,0,0,0,0,0,0,0,0
4485824a-191e-4504-b0e4-7fa2e2119fb6,4485824a-191e-4504-b0e4-7fa2e2119fb6,363239,99649,12.4,Sydling St Nicholas,Sydling Water,1969-12-01,,445410,3273,44006,Active,"",-2.522941,50.795228,533622.092067487,5627162.33485344,0,0,0,0,0,0,0,0,1,0
b3da16fa-2b4d-464a-a835-1028fce8b596,b3da16fa-2b4d-464a-a835-1028fce8b596,354689,513792,,Keld Intake Upstream,Keld Gill,2003-06-25,,761109,,,"",Data Temporarily Suspended,-2.701445,54.517372,519326.64944515,6041128.21012724,0,0,0,0,0,0,1,0,0,0
6b80bd1c-6c19-4c26-875d-108bf8ef1a84,6b80bd1c-6c19-4c26-875d-108bf8ef1a84,443835,206735,1600,Farmoor,River Thames,1992-06-25,,1100TH,7047,39129,Active,"",-1.366311,51.757588,612754.863726467,5735339.70190416,0,0,0,0,0,0,0,0,0,0
6c6c174e-519f-4b02-9e3e-1737f2139417_445510,6c6c174e-519f-4b02-9e3e-1737f2139417,370848,90331,,Loudsmill,River Frome,1969-07-01,,445510,3277,,Active,"",-2.414244,50.711872,541356.162550972,5617948.38117504,0,0,0,0,0,0,0,0,1,0
6c6c174e-519f-4b02-9e3e-1737f2139417_445508,6c6c174e-519f-4b02-9e3e-1737f2139417,370810,90350,,Loudsmill Combined,River Frome,1969-07-01,,445508,,,Active,"",-2.414784,50.712041,541317.888598811,5617966.87194532,0,0,0,0,0,0,0,0,1,0
6c6c174e-519f-4b02-9e3e-1737f2139417_445509,6c6c174e-519f-4b02-9e3e-1737f2139417,370821,90353,,Loudsmill Fishpass,River Frome,2008-08-08,,445509,3277,,Active,"",-2.414628,50.712068,541328.878818743,5617969.96135104,0,0,0,0,0,0,0,0,1,0
4747aea7-d2e7-41b4-b658-3242ae1c0eb8,4747aea7-d2e7-41b4-b658-3242ae1c0eb8,520905,297255,,Stanground Ultrasonic,King'S Dike,1992-06-01,,U33060,,,Active,"",-0.217908,52.559698,688581.747159541,5826928.86550203,1,0,0,0,0,0,0,0,0,0
41d13879-a145-4975-83bc-1aa9878d2fb5,41d13879-a145-4975-83bc-1aa9878d2fb5,419062,485989,510,Kilgram Bridge,River Ure,1968-01-01,,F2206,8113,27034,Active,"",-1.708807,54.26919,584087.869483157,6014241.73872801,0,0,1,0,0,0,0,0,0,0
63b8893e-1cef-40bc-8755-c0c4fe3e69dd,63b8893e-1cef-40bc-8755-c0c4fe3e69dd,449165,326255,1292,Kegworth,River Soar,1978-12-01,,4074,2132,28074,Active,"",-1.271689,52.831572,616433.699730335,5854934.11958922,0,0,1,0,0,0,0,0,0,0
127b5107-82fb-4e10-a15d-77ac7766422d,127b5107-82fb-4e10-a15d-77ac7766422d,386837,583213,343.8,Rede Bridge,River Rede,1968-10-01,,023008,8167,23008,Active,"",-2.208034,55.143073,550479.918093513,6110998.9195819,0,0,0,0,1,0,0,0,0,0
42968a1f-9f4e-4162-896d-39acbb55e58b,42968a1f-9f4e-4162-896d-39acbb55e58b,300909,506051,126,Braystones,River Ehen,1976-02-01,,744312,5018,74005,Active,"",-3.529373,54.440158,465667.085692119,6032624.68312236,0,0,0,1,0,0,0,0,0,0
4bca53ad-b1fe-4f3e-bc5e-32858fcfc96d,4bca53ad-b1fe-4f3e-bc5e-32858fcfc96d,521894,162800,,Bourne Hall Ponds,Hogsmill River,2009-11-11,,3345TH,,,Active,"",-0.25099,51.351208,691420.912666286,5692469.34760051,0,0,0,0,0,0,0,0,0,0
cdaa2757-51df-4d00-9d7a-440b0d88a937,cdaa2757-51df-4d00-9d7a-440b0d88a937,377537,100191,,Dewlish Woodsdown Cross,Devil'S Brook,1966-09-07,,444210,,,Active,"",-2.320113,50.800836,547911.124532498,5627897.77429915,0,0,0,0,0,0,0,0,1,0
971d4ec4-1147-40dd-b03d-a616a02b7817,971d4ec4-1147-40dd-b03d-a616a02b7817,499970,146265,110,Bramley,Cranleigh Waters,1983-11-05,,3069TH,7235,39122,Active,"",-0.570321,51.206851,669719.518721802,5675633.42326045,0,0,0,0,0,0,0,0,0,0
4b146acd-5118-4e14-b23a-13405168a010,4b146acd-5118-4e14-b23a-13405168a010,292695,125832,128,Brushford,River Barle,1967-10-01,,SS92F008,3257,45011,Active,"",-3.531302,51.021811,462736.344524223,5652384.67085889,0,0,0,0,0,0,0,0,1,0
8f2b54dc-b425-4a05-a100-0ea06f4ba248,8f2b54dc-b425-4a05-a100-0ea06f4ba248,414229,415754,97.4,Huddersfield Queens Mill,River Holme,1979-11-16,,F1003,8165,27065,Active,"",-1.786263,53.6381,580246.583125135,5943942.22186346,0,0,1,0,0,0,0,0,0,0
ddd4ea67-eff3-47b8-972c-dc5239620add,ddd4ea67-eff3-47b8-972c-dc5239620add,489920,271250,194,Harrowden,River Ise,1943-12-01,,032004,6104,32004,Active,"",-0.68182,52.331972,657953.54288778,5800492.09197627,1,0,0,0,0,0,0,0,0,0
81d85b5e-36b9-4933-b6be-6c4d335ae556,81d85b5e-36b9-4933-b6be-6c4d335ae556,347654,440921,84.5,New Draught,New Draught,1967-03-15,,720214,,,Active,"",-2.797399,53.861841,513324.32962511,5968169.22828799,0,0,0,1,0,0,0,0,0,0
588e6dc1-a77f-4961-9085-4b2617acb48e,588e6dc1-a77f-4961-9085-4b2617acb48e,264158,53219,43.5,Ermington,River Erme,1973-12-31,,SX65F051,3219,46006,Active,"",-3.911239,50.363155,435187.918375389,5579406.1241197,0,0,0,0,0,0,0,0,1,0
72f71a49-eabf-4155-91da-3b4342731f42,72f71a49-eabf-4155-91da-3b4342731f42,512660,373930,,Stainfield Beck,Stainfield Beck,1970-12-01,,030012,6062,30012,Active,"",-0.312919,53.250424,679267.235504991,5903498.01465697,1,0,0,0,0,0,0,0,0,0
0b2ad98d-d131-4233-9edc-f57be0b4ae31,0b2ad98d-d131-4233-9edc-f57be0b4ae31,351232,440550,32.4,A6 Brock Upstream,River Brock,1978-07-27,,720215,5022,72007,Active,"",-2.742941,53.858856,516907.030651483,5967848.72688796,0,0,0,1,0,0,0,0,0,0
3c58b9ab-5818-42af-8194-ed5fe9655142,3c58b9ab-5818-42af-8194-ed5fe9655142,234468,59634,37.2,Tideford,River Tiddy,1969-10-11,,SX35F068,3179,47009,Active,"",-4.331163,50.413192,405421.160762129,5585419.70263189,0,0,0,0,0,0,0,0,1,0
24cb6c6b-c859-4a45-b651-1468b010af70,24cb6c6b-c859-4a45-b651-1468b010af70,413215,317725,1229,Yoxall,River Trent,1969-01-06,,4012,2104,28012,Active,"",-1.805621,52.756966,580603.025868304,5845904.39565396,0,0,1,0,0,0,0,0,0,0
60914c18-1838-43e3-92c3-62765dfc7a99,60914c18-1838-43e3-92c3-62765dfc7a99,402013,202863,84,Cirencester,River Churn,1979-07-01,,0260TH,7015,39073,Active,"",-1.97225,51.724478,570987.049097767,5730894.42837835,0,0,0,0,0,0,0,0,0,0
53450672-fa32-414b-888a-fc5480aaf67d,53450672-fa32-414b-888a-fc5480aaf67d,389140,187032,89.7,Fosseway,Sherston Avon,1976-10-29,,530550,3035,53023,Active,"",-2.15812,51.582035,558331.748807045,5714888.39641217,0,0,0,0,0,1,0,0,0,1
18142c4b-ecf0-497c-ac4b-ccaef45aefc1,18142c4b-ecf0-497c-ac4b-ccaef45aefc1,361612,170380,,Brislington,Brislington Brook,2005-07-01,,530194_FW,3032,,Active,"",-2.553576,51.431108,531034.140170559,5697862.03269399,0,0,0,0,0,1,0,0,0,1
7337c648-a4bf-4f8b-80c2-2b17efdba8cd,7337c648-a4bf-4f8b-80c2-2b17efdba8cd,461239,454337,,Huntington,River Foss,1988-06-07,,F2470,8235,27083,Active,"",-1.067671,53.981457,626712.174517229,5983187.07310088,0,0,1,0,0,0,0,0,0,0
daa47a41-8f5a-4edb-9840-e0a13533cc64,daa47a41-8f5a-4edb-9840-e0a13533cc64,453040,425471,,Beal,River Aire,1976-10-01,,F1806,8017,27003,Active,"",-1.197656,53.722944,618920.038821079,5954205.07694469,0,0,1,0,0,0,0,0,0,0
78df8fd0-4075-4296-8187-b25f3c53de52,78df8fd0-4075-4296-8187-b25f3c53de52,432130,168520,101.3,Hungerford,River Dun,1968-04-01,,2239TH,7120,39028,Active,"",-1.539372,51.414788,601572.714432358,5696964.65466955,0,0,0,0,0,0,0,0,0,0
b0a28c3c-b5dc-4a94-a661-2ef0639049c7,b0a28c3c-b5dc-4a94-a661-2ef0639049c7,506573,194809,105,Rickmansworth,River Chess,1974-07-01,,2859TH,7190,39088,Active,"",-0.46125,51.641989,675660.292772405,5724272.99757,0,0,0,0,0,0,0,0,0,0
d42b68be-0da7-4519-ba9a-e24f789d9c10,d42b68be-0da7-4519-ba9a-e24f789d9c10,476061,444429,103.1,Thornton Lock,"",1983-04-14,,F2830,9145,27076,Active,"",-0.844165,53.890459,641674.544396801,5973487.93809592,0,0,1,0,0,0,0,0,0,0
d0bdea3c-41c2-4ad7-8b19-28f968b4ce61,d0bdea3c-41c2-4ad7-8b19-28f968b4ce61,555163,186177,47.9,Gaynes Park,"",1970-11-01,,5550TH,9325,37018,Active,"",0.236647,51.553141,724376.15818739,5716304.98481956,0,0,0,0,0,0,0,0,0,0
a360ba77-5ae2-465f-9808-26fc197adde6,a360ba77-5ae2-465f-9808-26fc197adde6,410895,319175,163.5,Hamstall Ridware,River Blithe,1959-10-01,,4002,9081,28002,Active,"",-1.839949,52.770052,578263.010117651,5847322.07158054,0,0,1,0,0,0,0,0,0,0
b6cc814c-4b13-4645-89ee-25e8e3d79dc0,b6cc814c-4b13-4645-89ee-25e8e3d79dc0,229956,59471,39.1,Trebrownbridge,River Seaton,1972-08-01,,SX25F064,3133,48010,Active,"",-4.394536,50.410438,400912.940776645,5585196.04631158,0,0,0,0,0,0,0,0,1,0
4ced4530-229b-4bca-8723-003040a6d40a,4ced4530-229b-4bca-8723-003040a6d40a,140014,22986,13.7,Penberth,"",1993-12-16,,SW42F895,3339,49008,Active,"",-5.633119,50.050073,311499.715522084,5547519.63233447,0,0,0,0,0,0,0,0,1,0
84b5acac-c528-4115-9d61-382762a52e99,84b5acac-c528-4115-9d61-382762a52e99,418367,93387,,Somerford,River Mude,1971-10-01,,430160,,43013,Active,"",-1.741067,50.739803,588830.574756552,5621646.33456566,0,0,0,0,0,0,0,0,1,0
351f05c7-7a89-46c0-9d8a-dc56c5f7b42d,351f05c7-7a89-46c0-9d8a-dc56c5f7b42d,401106,445684,282,Kildwick,River Aire,1966-11-28,,F1503,8112,27035,Active,"",-1.984643,53.9073,566702.902278146,5973685.50880919,0,0,1,0,0,0,0,0,0,0
8c0977fe-d8fe-4d98-83ab-7916cbd2eb83,8c0977fe-d8fe-4d98-83ab-7916cbd2eb83,518534,229020,6.8,Hitchin,River Hiz,1980-08-09,,033065,,33065,Active,"",-0.276795,51.94705,687153.119796993,5758652.37162005,1,0,0,0,0,0,0,0,0,0
b8e0fbe8-8d4f-4bd7-bd4e-068972edf6ea,b8e0fbe8-8d4f-4bd7-bd4e-068972edf6ea,594432,341388,77.1,Warham,River Stiffkey,1980-01-17,,034018,,34018,Active,"",0.891642,52.934657,761508.708119476,5872093.0775924,1,0,0,0,0,0,0,0,0,0
9796dc02-6edf-4392-b727-0d861cbb1edd,9796dc02-6edf-4392-b727-0d861cbb1edd,364803,164723,130,Compton Dando,River Chew,1958-03-01,,531450,3044,53004,Active,"",-2.507113,51.380453,534301.9776847,5692249.35953994,0,0,0,0,0,1,0,0,0,1
34f4e53b-4616-4aaa-b8ad-170c22c808c4,34f4e53b-4616-4aaa-b8ad-170c22c808c4,320910,494720,,Ulpha,River Duddon,1973-01-11,,740101,5142,74008,Active,"",-3.218047,54.341859,485824.490481448,6021580.06202063,0,0,0,1,0,0,0,0,0,0
34f4e53b-4616-4aaa-b8ad-170c22c808c4_589359,34f4e53b-4616-4aaa-b8ad-170c22c808c4,320907,494697,,Ulpha  Duddo,"",1990-10-04,,589359,,,Active,"",-3.218087,54.341652,485821.818803657,6021557.03788086,0,0,0,1,0,0,0,0,0,0
00ea663a-3d89-4f10-a22d-17f07465cebc,00ea663a-3d89-4f10-a22d-17f07465cebc,290478,147006,,Allerford,River Aller,1993-01-21,,510305_FW,3092,,Active,"",-3.569336,51.211718,460232.149878774,5673523.16942643,0,0,0,0,0,0,0,0,1,0
d21c59dc-848c-4c13-97eb-edbb1e71b767,d21c59dc-848c-4c13-97eb-edbb1e71b767,345515,353965,38.1,Carden Park,Carden Brook,1999-09-10,,067045,,,Active,"",-2.814806,53.080104,512405.41741458,5881197.52605282,0,1,0,0,0,0,0,0,0,0
e574cb25-00e0-4d39-a8b4-da06d1f173ce,e574cb25-00e0-4d39-a8b4-da06d1f173ce,204456,67451,38.5,Bodmin Dunmere,River Camel,2015-04-23,,SX06F057,9149,49007,Active,"",-4.757174,50.474183,375315.125645219,5592829.66836425,0,0,0,0,0,0,0,0,1,0
8ff9f61b-d835-498e-895c-0e54293930b2,8ff9f61b-d835-498e-895c-0e54293930b2,444100,146290,,Hurstbourne Priors,Bourne Rivulet,1993-03-08,,151802002,,,Active,"",-1.370003,51.214112,613845.725238229,5674897.84299509,0,0,0,0,0,0,0,1,0,0
cdbecc7a-6bfa-41c2-8c38-222c43367fe2,cdbecc7a-6bfa-41c2-8c38-222c43367fe2,475420,259740,,South Bridge Ultra,River Nene,1998-10-13,,U32001,,,Active,"",-0.897134,52.230695,643611.604131213,5788780.93210049,1,0,0,0,0,0,0,0,0,0
60ce0c60-fc75-4465-8170-938241cd4424,60ce0c60-fc75-4465-8170-938241cd4424,455845,368005,63,Church Warsop,River Meden,1965-08-01,,4032,2186,28032,Active,"",-1.165341,53.206178,622531.409598205,5896777.74638874,0,0,1,0,0,0,0,0,0,0
3281b3cf-9010-4f38-8fec-8f8ba1343ea3,3281b3cf-9010-4f38-8fec-8f8ba1343ea3,518410,221210,39.1,Whitwell,River Mimram,1970-06-01,,4730TH,7334,38017,Active,"",-0.28128,51.876889,687136.514082692,5750839.5454324,0,0,0,0,0,0,0,0,0,0
280e15ee-d656-40f0-be7a-a144770a6744,280e15ee-d656-40f0-be7a-a144770a6744,422476,421023,46.3,Northorpe,"",1982-06-22,,F1385,8149,27074,Active,"",-1.661155,53.685171,588419.127093567,5949327.03564922,0,0,1,0,0,0,0,0,0,0
35d60d64-c511-444d-90bc-c5659d860583,35d60d64-c511-444d-90bc-c5659d860583,519004,237883,108,Arlesey,River Hiz,1973-04-12,,033033,6076,33033,Active,"",-0.266888,52.026597,687501.185186241,5767522.91165486,1,0,0,0,0,0,0,0,0,0
d52d0eab-1e64-4d76-a1f2-e81c7948d2c0,d52d0eab-1e64-4d76-a1f2-e81c7948d2c0,378025,304675,65.3,Cosford,River Worfe,1975-01-30,,2046,,54046,Active,"",-2.326164,52.639361,545597.009283644,5832366.75650372,0,0,0,0,0,1,0,0,0,1
d52d0eab-1e64-4d76-a1f2-e81c7948d2c0_435510,d52d0eab-1e64-4d76-a1f2-e81c7948d2c0,378020,304670,,Cosford,"",1982-11-05,,435510,,,Active,"",-2.326238,52.639315,545592.049752694,5832361.5929816,0,0,0,0,0,1,0,0,0,1
585e49e0-7070-4d85-9c52-ccd18a5a1e65,585e49e0-7070-4d85-9c52-ccd18a5a1e65,381522,160445,,Bradford On Avon,"",1998-01-01,,530176,3016,,Active,"",-2.266665,51.342781,551077.433712861,5688199.81420874,0,0,0,0,0,1,0,0,0,1
585e49e0-7070-4d85-9c52-ccd18a5a1e65_413902,585e49e0-7070-4d85-9c52-ccd18a5a1e65,381570,160310,,Bradford On Avon,"",1991-10-01,,413902,,,Active,"",-2.265968,51.341569,551127.328286465,5688065.51518508,0,0,0,0,0,1,0,0,0,1
575d64ff-3205-4213-abe9-ed455d9bc49f,575d64ff-3205-4213-abe9-ed455d9bc49f,242627,72524,916.9,Gunnislake,River Tamar,1956-06-25,,SX47F051,3201,47001,Active,"",-4.221847,50.531269,413403.791584728,5598415.17903486,0,0,0,0,0,0,0,0,1,0
f48b6a3b-96f0-40cf-9f97-22d0ba05652b,f48b6a3b-96f0-40cf-9f97-22d0ba05652b,385436,157893,,Trowbridge,River Biss,1984-01-01,,531050,3047,53029,Active,"",-2.210367,51.319949,555025.910399289,5685701.41538883,0,0,0,0,0,1,0,0,0,1
fd43ce67-61f8-481b-8547-0d899aa63c0b,fd43ce67-61f8-481b-8547-0d899aa63c0b,567855,124005,27.5,Burwash,River Dudwell,1969-05-05,,556521001,,40017,Active,"",0.390375,50.990967,737918.684585821,5654293.05108242,0,0,0,0,0,0,0,1,0,0
c7e13884-4a02-4df3-b184-09aea28cf8e8,c7e13884-4a02-4df3-b184-09aea28cf8e8,498670,326110,31.6,Burton Coggles,West Glen River,1969-02-13,,031011,6026,31011,Active,"",-0.537135,52.82349,665943.307077648,5855478.04254182,1,0,0,0,0,0,0,0,0,0
c7e13884-4a02-4df3-b184-09aea28cf8e8_3_020,c7e13884-4a02-4df3-b184-09aea28cf8e8,498965,325135,,Burton Coggles,"",1974-07-30,,3_020,,,Active,"",-0.533054,52.814674,666251.885532297,5854507.0396134,1,0,0,0,0,0,0,0,0,0
3d92eb2a-bb11-4519-980b-4ca2700e980b,3d92eb2a-bb11-4519-980b-4ca2700e980b,568006,325260,47.7,Castle Rising,Babingley River,1976-07-13,,033054,6248,33054,Active,"",0.490559,52.798728,735301.515359431,5855593.15170189,1,0,0,0,0,0,0,0,0,0
404429da-b05c-4c95-98ee-4941b2133cb6,404429da-b05c-4c95-98ee-4941b2133cb6,336052,118779,90.1,Ashford Mill,River Isle,1962-10-01,,520110,3077,52004,Active,"",-2.911994,50.964864,506180.008081799,5645921.33082259,0,0,0,0,0,0,0,0,1,0
5e6d925f-3102-444c-a748-1dbec611e1dc,5e6d925f-3102-444c-a748-1dbec611e1dc,426042,240517,185,Shipston,River Stour,1972-04-24,,2092,2045,54106,Active,"",-1.621546,52.062415,594497.735989206,5768876.8247704,0,0,0,0,0,1,0,0,0,1
a49bd26a-9ea4-47ec-b7ab-3a5ceb369e70,a49bd26a-9ea4-47ec-b7ab-3a5ceb369e70,386097,363263,145,Congleton Park,River Dane,1979-11-01,,681006,5036,68018,Active,"",-2.209408,53.16629,552852.376439177,5891061.03733343,0,0,0,1,0,0,0,0,0,0
e8f318af-7c16-40c2-a2a2-c723e1c21eee,e8f318af-7c16-40c2-a2a2-c723e1c21eee,336969,494044,,Eel House Bridge,Cunsey Beck,1976-01-01,,735226,5209,73006,Active,"",-2.970931,54.338025,501889.989507081,6021131.93842343,0,0,0,1,0,0,0,0,0,0
624d4674-67a2-4537-874a-235e8958203a,624d4674-67a2-4537-874a-235e8958203a,508243,195241,184,Croxley Green,River Gade,1970-10-01,,2849TH,7188,39030,Active,"",-0.436992,51.645553,677324.577925647,5724727.90745314,0,0,0,0,0,0,0,0,0,0
6c72f76a-b76c-4a28-8701-71cdca25c0f5,6c72f76a-b76c-4a28-8701-71cdca25c0f5,498045,177245,7100,Windsor,River Thames,1979-07-20,,2700TH,7170,39072,Active,"",-0.589344,51.485663,667371.686755325,5706590.43363314,0,0,0,0,0,0,0,0,0,0
cc0cedad-23fc-4893-b83c-1f47871293bd,cc0cedad-23fc-4893-b83c-1f47871293bd,446282,236901,87.7,Bodicote,Sor Brook,1995-05-26,,1437TH,7062,39144,Active,"",-1.326823,52.02859,614787.374535272,5765539.4964022,0,0,0,0,0,0,0,0,0,0
b435c357-5e89-429d-9e2e-f52e231d7a5f,b435c357-5e89-429d-9e2e-f52e231d7a5f,540179,367601,,Partney,River Lymn,1963-01-01,,030004,6112,30004,Active,"",0.09648,53.187026,706878.479979167,5897553.36347771,1,0,0,0,0,0,0,0,0,0
0a8b3311-f905-40e3-9516-823b7eb8a946,0a8b3311-f905-40e3-9516-823b7eb8a946,369368,577778,1.5,Coal Burn,Coal Burn,1991-07-01,,763117,5033,76011,Active,"",-2.481494,55.09346,533090.770835461,6105314.42950988,0,0,0,0,0,0,1,0,0,0
0a8b3311-f905-40e3-9516-823b7eb8a946_603111,0a8b3311-f905-40e3-9516-823b7eb8a946,369326,577721,,Coalburn Whitehill,"",1992-08-11,,603111,,,Active,"",-2.482146,55.092945,533049.585732222,6105256.81212598,0,0,0,0,0,0,1,0,0,0
ac26cd8b-faa1-428c-9b71-267005839f70,ac26cd8b-faa1-428c-9b71-267005839f70,377299,509694,69.4,Kirkby Stephen,River Eden,1931-09-12,,760101,5157,76014,Active,"",-2.351872,54.482067,541991.845111048,6037352.1456457,0,0,0,0,0,0,1,0,0,0
8496ce69-482c-406a-a2f0-ac418ef8f099,8496ce69-482c-406a-a2f0-ac418ef8f099,517785,169855,9948,Kingston,River Thames,1883-10-01,,3400TH,7267,39001,Active,"",-0.307629,51.415482,687215.058752798,5699469.24169016,0,0,0,0,0,0,0,0,0,0
029d4a8c-45f6-4c66-8a23-1785a26aa017,029d4a8c-45f6-4c66-8a23-1785a26aa017,352010,518079,,Bampton Grange,River Lowther,2000-10-10,,761260,5170,,"",Data Temporarily Suspended,-2.743525,54.555648,516587.122600204,6045376.44002895,0,0,0,0,0,0,1,0,0,0
e18394ec-4cb0-4fd6-b078-f2686bdac694,e18394ec-4cb0-4fd6-b078-f2686bdac694,456783,164772,148,Brimpton,River Enborne,1967-10-01,,2279TH,7128,39025,Active,"",-1.185506,51.379163,626277.143513529,5693553.07297776,0,0,0,0,0,0,0,0,0,0
af5d4468-4d94-49ce-bca2-8b4f73648d71,af5d4468-4d94-49ce-bca2-8b4f73648d71,469439,479196,238.7,Ness,River Rye,1974-08-07,,F2505,8147,27049,Active,"",-0.93696,54.203804,634560.766005582,6008162.67838974,0,0,1,0,0,0,0,0,0,0
7af14076-87ce-457c-be19-72ad5e30503e,7af14076-87ce-457c-be19-72ad5e30503e,406325,366835,8.1,Hollinsclough,River Dove,1965-09-01,,4033,,28033,Active,"",-1.906769,53.198546,573028.883561257,5894915.40253891,0,0,1,0,0,0,0,0,0,0
e7bc8b2f-525b-4f1f-902d-6398a291f85f,e7bc8b2f-525b-4f1f-902d-6398a291f85f,358616,406023,55.3,Wigan,River Douglas,1999-12-01,,700325,5152,70003,Active,"",-2.626059,53.549186,524775.67621878,5933430.80825951,0,0,0,1,0,0,0,0,0,0
951e3a10-1d16-4526-b767-e5056724b5b6,951e3a10-1d16-4526-b767-e5056724b5b6,418255,369685,154,Ashford,River Wye,1965-07-13,,4023,2110,28023,Active,"",-1.728027,53.223891,584918.374908017,5897932.0841933,0,0,1,0,0,0,0,0,0,0
f6570b4e-8721-4397-885a-7ecfeab86cd8,f6570b4e-8721-4397-885a-7ecfeab86cd8,433405,131335,,Bossington,Wallop Brook,1993-03-05,,151808002,,42026,Active,"",-1.524498,51.080366,603354.025211594,5659797.4594533,0,0,0,0,0,0,0,1,0,0
4d693468-3dc8-4013-9fe9-a8125199be8c,4d693468-3dc8-4013-9fe9-a8125199be8c,458746,107460,110,North Fareham,"",1975-07-01,,153309001,1044,42001,Active,"",-1.166624,50.863669,629019.438469666,5636265.88811633,0,0,0,0,0,0,0,1,0,0
bbaa85be-3a06-4d2b-b5ad-7f1f55b6554d,bbaa85be-3a06-4d2b-b5ad-7f1f55b6554d,404007,243741,2210,Evesham,River Avon,1936-12-01,,2002,2002,54002,Active,"",-1.94292,52.091994,572419.265807833,5771797.24453762,0,0,0,0,0,1,0,0,0,1
9eb75798-aa46-40f5-b9c7-7fd7b919087d,9eb75798-aa46-40f5-b9c7-7fd7b919087d,441924,472437,,Cundall Bat Bridge,Cundall Beck,1987-01-01,,F2311,8016,27082,Active,"",-1.359677,54.146044,607141.139512117,6001013.99182226,0,0,1,0,0,0,0,0,0,0
9cba8a99-f947-4661-8745-3cf4350dfda5,9cba8a99-f947-4661-8745-3cf4350dfda5,217955,70936,12,Colliford Weir,St Neot River,1983-03-31,,SX17F025,,,Active,"",-4.568841,50.509842,388761.89666657,5596495.19884009,0,0,0,0,0,0,0,0,1,0
9cba8a99-f947-4661-8745-3cf4350dfda5_376412,9cba8a99-f947-4661-8745-3cf4350dfda5,217942,70966,,Colliford,"",2001-04-24,,376412,,,Active,"",-4.569038,50.510107,388748.551970715,5596524.95849275,0,0,0,0,0,0,0,0,1,0
013054a3-670e-49ee-afda-e0865a449197,013054a3-670e-49ee-afda-e0865a449197,372223,90653,206,Dorchester Combined,River Frome,1971-10-01,,445512,,44004,Active,"",-2.394795,50.714835,542726.617713361,5618288.90402509,0,0,0,0,0,0,0,0,1,0
d173a23d-0450-4ca0-8aae-0524490e9d75,d173a23d-0450-4ca0-8aae-0524490e9d75,411245,339675,399,Rocester Dove,River Dove,1972-09-01,,4008,2101,28008,Active,"",-1.834061,52.954325,578327.672041505,5867825.71893968,0,0,1,0,0,0,0,0,0,0
c9fb80f4-1454-40ca-a87e-da4a12ea76fa,c9fb80f4-1454-40ca-a87e-da4a12ea76fa,336600,486264,247,Newby Bridge,River Leven,1939-01-01,,735430,5160,73010,Active,"",-2.974952,54.268069,501631.318201763,6013348.10592841,0,0,0,1,0,0,0,0,0,0
49aac0d2-d8f1-464f-989c-2564e4891401,49aac0d2-d8f1-464f-989c-2564e4891401,636008,260105,63.9,Farnham,River Alde,1961-10-01,,035003,6085,35003,Active,"",1.451352,52.188641,804225.56567761,5791364.4262972,1,0,0,0,0,0,0,0,0,0
3f823183-2275-444a-9896-981be95ff3bf,3f823183-2275-444a-9896-981be95ff3bf,251312,69888,44.6,Horrabridge,River Walkham,1974-04-18,,SX56F057,3200,47014,Active,"",-4.098343,50.509853,422121.461336502,5595897.08821826,0,0,0,0,0,0,0,0,1,0
e786e60f-a0f1-4955-aa57-f22ba39c7427,e786e60f-a0f1-4955-aa57-f22ba39c7427,403913,561684,2175.6,Bywell,River Tyne,1956-10-01,,023001,8040,23001,Active,"",-1.94043,54.949776,567862.460232978,6089716.28587132,0,0,0,0,1,0,0,0,0,0
3a387080-0ead-4df7-9d77-e7374f796d60,3a387080-0ead-4df7-9d77-e7374f796d60,375075,203576,32.8,Cambridge,River Cam,1992-09-10,,2603,2077,54098,Active,"",-2.362289,51.730333,544041.566409536,5731238.20087566,0,0,0,0,0,1,0,0,0,1
2ddf72d2-6461-4e9b-bc86-201fbd68e6d2,2ddf72d2-6461-4e9b-bc86-201fbd68e6d2,408638,253580,319,Broom,River Arrow,1957-10-01,,2104,2052,54007,Active,"",-1.875079,52.180399,576914.405146076,5781699.49550815,0,0,0,0,0,1,0,0,0,1
5b9e9503-32e2-46ea-a713-be0f283c23be,5b9e9503-32e2-46ea-a713-be0f283c23be,458466,508686,14.8,Easby,River Leven,1971-05-01,,F3808,8071,25019,Active,"",-1.099385,54.470167,623169.047274018,6037497.5033428,0,0,0,0,1,0,0,0,0,0
5b9e9503-32e2-46ea-a713-be0f283c23be_031555,5b9e9503-32e2-46ea-a713-be0f283c23be,458471,508709,,Easby,"",1982-01-01,,031555,,,Active,"",-1.099303,54.470373,623173.741711062,6037520.56420836,0,0,0,0,1,0,0,0,0,0
c0d741a3-b820-4da9-a2ba-7efd545c3dd6,c0d741a3-b820-4da9-a2ba-7efd545c3dd6,506790,315980,136.2,Manthorpe East Glen,East Glen River,1968-10-17,,031008,6040,31008,Active,"",-0.41998,52.730916,674204.982957518,5845460.04834057,1,0,0,0,0,0,0,0,0,0
b27ced8c-bf7d-4d8f-8148-f590ccc35f4c,b27ced8c-bf7d-4d8f-8148-f590ccc35f4c,388469,390036,531,Brinksway,River Mersey,1974-01-01,,692524,5021,69028,Active,"",-2.17491,53.407,554849.440148136,5917864.57424593,0,0,0,1,0,0,0,0,0,0
aef77f8a-7da4-4dae-84ea-88f643d8e00d,aef77f8a-7da4-4dae-84ea-88f643d8e00d,438853,268829,300,Eathorpe,River Leam,1972-06-16,,2050,2184,54050,Active,"",-1.431452,52.31619,606917.995853677,5797365.05702313,0,0,0,0,0,1,0,0,0,1
fcb795f4-07bc-4ae0-8372-041644e7f275,fcb795f4-07bc-4ae0-8372-041644e7f275,386798,230103,9877,Deerhurst,River Severn,1995-12-01,,2606,2078,54110,Active,"",-2.193572,51.969234,555399.227138527,5757923.43904125,0,0,0,0,0,1,0,0,0,1
73ee60b4-ef40-4579-a060-db2312ea3ce1,73ee60b4-ef40-4579-a060-db2312ea3ce1,414715,351005,83,Izaak Walton,River Dove,1969-06-03,,4046,2119,28046,Active,"",-1.7819,53.056088,581639.465601426,5879203.51408443,0,0,1,0,0,0,0,0,0,0
dbc64462-fd71-4527-995e-7ba62c05b63c,dbc64462-fd71-4527-995e-7ba62c05b63c,241625,86663,57.6,Hayne Bridge,River Thrushel,1988-07-15,,SX48F012,3194,47018,Active,"",-4.242004,50.65805,412211.393263719,5612535.79572332,0,0,0,0,0,0,0,0,1,0
361104f3-589a-457f-aa4e-0a99257c6431,361104f3-589a-457f-aa4e-0a99257c6431,472221,259096,223,Upton Mill Total,River Nene,1939-11-01,,032806,,32006,Active,"",-0.944102,52.225335,640421.266719956,5788092.79900524,1,0,0,0,0,0,0,0,0,0
2bae7d6b-cd13-4db3-b2e2-aae042af76e3,2bae7d6b-cd13-4db3-b2e2-aae042af76e3,457433,132607,57,Drove Lane Main,River Alre,1975-06-01,,152202007,1053,,Active,"",-1.181314,51.089905,627365.187242168,5661395.90846321,0,0,0,0,0,0,0,1,0,0
d2d2a44c-25cb-4b0d-b4a5-4929e1d11975,d2d2a44c-25cb-4b0d-b4a5-4929e1d11975,249955,118564,663,Torrington,River Torridge,1960-07-31,,SS51F004,3126,50002,Active,"",-4.137288,50.946929,420107.029203684,5644539.00384197,0,0,0,0,0,0,0,0,1,0
3df68add-46f9-42e7-8439-290f63e195cd,3df68add-46f9-42e7-8439-290f63e195cd,416100,126370,,Nunton Bridge,River Ebble,1996-12-05,,432520,3318,43023,Active,"",-1.771751,51.036463,586116.796580182,5654597.48196565,0,0,0,0,0,0,0,0,1,0
d67c086f-ceb4-48a8-badc-042f2fa0ee1f,d67c086f-ceb4-48a8-badc-042f2fa0ee1f,392191,314433,272,Penkridge,River Penk,1971-08-01,,4053,2123,28053,Active,"",-2.117061,52.727473,559626.166508519,5842320.4521152,0,0,1,0,0,0,0,0,0,0
8b386e12-f3d1-4a0b-9e01-3d4367bc9bc1,8b386e12-f3d1-4a0b-9e01-3d4367bc9bc1,361453,470115,,Wennington,River Wenning,1976-01-07,,724326,5148,72009,Active,"",-2.591307,54.125423,526708.975351667,5997553.62007663,0,0,0,1,0,0,0,0,0,0
e9c72be8-dea1-4a5d-8af7-05dce5f419ee,e9c72be8-dea1-4a5d-8af7-05dce5f419ee,446732,121431,,Highbridge,River Itchen,1975-06-01,,152208202,1055,,Active,"",-1.335534,50.990385,616815.65303489,5650074.29157195,0,0,0,0,0,0,0,1,0,0
481f8042-997a-44cc-b425-51340d4cee9c,481f8042-997a-44cc-b425-51340d4cee9c,415764,114351,1477.8,East Mills Flume,"",1992-01-01,,432610,3315,,Active,"",-1.77706,50.928396,585943.888341865,5642574.4328174,0,0,0,0,0,0,0,0,1,0
f44bf96d-3953-4fec-88bd-30ef4e12e523,f44bf96d-3953-4fec-88bd-30ef4e12e523,471802,174065,4640,Reading,River Thames,1992-08-19,,2200TH,7110,39130,Active,"",-0.967862,51.46101,641170.000460132,5703051.51741165,0,0,0,0,0,0,0,0,0,0
3bf40265-657a-44f4-90e3-e1e437d3c801,3bf40265-657a-44f4-90e3-e1e437d3c801,393731,184031,28.2,Rodbourne,Gauze Brook,1968-08-01,,530140,3018,53020,Active,"",-2.091808,51.555123,562963.422377098,5711950.45440903,0,0,0,0,0,1,0,0,0,1
e3a8de3e-3bb5-482e-a558-baec0dd88194,e3a8de3e-3bb5-482e-a558-baec0dd88194,393549,186874,,St Johns Weir,Sherston Avon,2002-05-27,,530591,3408,,Active,"",-2.094486,51.580683,562742.570324244,5714790.71822588,0,0,0,0,0,1,0,0,0,1
93cd0262-1cf7-45ac-8491-c9815c7fe710,93cd0262-1cf7-45ac-8491-c9815c7fe710,348840,89362,,Burton Bradstock,River Bride,1992-11-01,,F447000_FW,3285,,Active,"",-2.725794,50.701634,519364.049528722,5616682.1723066,0,0,0,0,0,0,0,0,1,0
8a02b242-5805-4750-b141-c8bfd6028c18,8a02b242-5805-4750-b141-c8bfd6028c18,508060,299550,,Wansford Combined,River Nene,1996-01-16,,U32610,,32010,Active,"",-0.406558,52.583021,675703.335319352,5829045.92654023,1,0,0,0,0,0,0,0,0,0
da7b6a82-062b-4723-9d9e-8fb7ca9b52c3,da7b6a82-062b-4723-9d9e-8fb7ca9b52c3,501810,306010,534.4,Tinwell,River Welland,1987-05-26,,031031,,,Active,"",-0.49678,52.64228,669363.004646645,5835419.8905571,1,0,0,0,0,0,0,0,0,0
f35edef4-7f87-4020-8088-95ea60da2b79,f35edef4-7f87-4020-8088-95ea60da2b79,521360,357730,,River Bain Tattershall,River Bain,1983-10-18,,030021,,,Active,"",-0.188736,53.102962,688194.804883588,5887417.84051129,1,0,0,0,0,0,0,0,0,0
9af510f4-5629-465b-81a9-855274a8750a,9af510f4-5629-465b-81a9-855274a8750a,417458,585790,287.3,Mitford,River Wansbeck,1963-03-05,,022007,8139,22007,Active,"",-1.727492,55.166104,581061.535633339,6114014.47901011,0,0,0,0,1,0,0,0,0,0
6b0cab32-b905-4f3c-a554-cd5176c5d2e4,6b0cab32-b905-4f3c-a554-cd5176c5d2e4,512792,331246,,Pointon Little Wisbech,Pointon Lode,1972-05-02,,030014,6222,30014,Active,"",-0.325877,52.866873,679995.215718823,5860811.16721075,1,0,0,0,0,0,0,0,0,0
4b6b5531-e867-43a1-ac24-ec8868795699,4b6b5531-e867-43a1-ac24-ec8868795699,578645,210753,77.8,Crabbs Bridge,River Ter,1963-11-16,,037003,,37003,Active,"",0.58755,51.766944,747526.37803022,5741208.2407079,1,0,0,0,0,0,0,0,0,0
a9417599-e466-4b53-babe-0c81229c4328,a9417599-e466-4b53-babe-0c81229c4328,337125,504195,64,Miller Bridge House,River Rothay,1976-01-01,,735022,5162,73013,Active,"",-2.970683,54.429259,501901.891230448,6031283.33393912,0,0,0,1,0,0,0,0,0,0
fcdd7420-c000-4db7-99fa-3835a65372fe,fcdd7420-c000-4db7-99fa-3835a65372fe,569009,207165,228.4,Beach'S Mill,River Can,1962-04-01,,037006,6149,37006,Active,"",0.446302,51.737703,737937.393975323,5737487.14134159,1,0,0,0,0,0,0,0,0,0
7765d509-e68b-4ede-8924-42b8bc5bf2a1,7765d509-e68b-4ede-8924-42b8bc5bf2a1,527488,221164,36,"",Stevenage Brook,1974-04-01,,4827TH,7338,38012,Active,"",-0.149495,51.874477,696216.383863836,5750918.38782541,0,0,0,0,0,0,0,0,0,0
b0166a7b-cf7c-4ada-8688-deaa14a01898,b0166a7b-cf7c-4ada-8688-deaa14a01898,400314,384513,,Goytside Farm,River Goyt,2002-01-19,,692348,5232,,Active,"",-1.996738,53.357485,566770.869717321,5912508.06582665,0,0,0,1,0,0,0,0,0,0
0e47ccb4-c070-4b46-8885-f3168aa864d5,0e47ccb4-c070-4b46-8885-f3168aa864d5,431777,126186,,Dunbridge,River Dun,2005-04-12,,151811002,9232,,Active,"",-1.548188,51.034159,601795.977487074,5654626.37384861,0,0,0,0,0,0,0,1,0,0
fa6a8a63-c8cc-4820-92e4-821b3ccc6889,fa6a8a63-c8cc-4820-92e4-821b3ccc6889,629634,336400,19.4,Mundesley,River Mun,1968-04-09,,034021,,,Active,"",1.410979,52.876012,796790.143685633,5867594.83946163,1,0,0,0,0,0,0,0,0,0
2d12f3ed-1ff2-4622-9d7d-bd6483bd1e4f,2d12f3ed-1ff2-4622-9d7d-bd6483bd1e4f,422618,499315,499.4,Catterick Bridge,River Swale,1992-12-17,,F2306,8043,27090,Active,"",-1.653202,54.388806,587454.715713798,6027617.51030653,0,0,1,0,0,0,0,0,0,0
cba899d9-2eee-4a91-b0ef-91335aaca422,cba899d9-2eee-4a91-b0ef-91335aaca422,334593,145793,,Bason Bridge,River Brue,2010-04-01,,521191,,,Active,"",-2.937667,51.207579,504354.336015006,5672910.71550269,0,0,0,0,0,0,0,0,1,0
d69fc777-cc14-47e1-993f-283e08920328,d69fc777-cc14-47e1-993f-283e08920328,384625,383001,51.8,Stanneylands,"",1976-01-01,,693333,5133,69008,Active,"",-2.232387,53.343667,551104.37438542,5910776.39469159,0,0,0,1,0,0,0,0,0,0
4662701f-d016-44e9-8fe2-e50064e5e924,4662701f-d016-44e9-8fe2-e50064e5e924,400543,386398,,Watford Bridge,River Sett,2002-08-24,,692366,,,Active,"",-1.993295,53.374428,566973.4300341,5914396.09302535,0,0,0,1,0,0,0,0,0,0
51190ba2-682a-493c-bf93-918c8221d81e,51190ba2-682a-493c-bf93-918c8221d81e,396259,247611,106,Wyre Piddle,Piddle Brook,2000-07-26,,2133,2223,54115,Active,"",-2.056054,52.126787,564618.456620267,5775560.17003734,0,0,0,0,0,1,0,0,0,1
f02dce57-8c7c-4741-941e-9638164be462,f02dce57-8c7c-4741-941e-9638164be462,394881,186573,46.6,Crabb Mill,Woodbridge Brook,1969-08-01,,530130,3017,53019,Active,"",-2.075259,51.577991,564078.558704409,5714508.00904115,0,0,0,0,0,1,0,0,0,1
668ae9bb-cd78-49d1-a116-b4857439fa0a,668ae9bb-cd78-49d1-a116-b4857439fa0a,378175,310915,,Burlington - Worfe,River Worfe,1999-05-26,,2884,,,Active,"",-2.324363,52.695461,545660.365307642,5838608.09364723,0,0,0,0,0,1,0,0,0,1
2e224cf2-9423-4a4e-b719-f56d6454bc6b,2e224cf2-9423-4a4e-b719-f56d6454bc6b,428386,451880,8.1,Burn Br.Nr.Pannal,Crimple Beck Or River Crimple,1972-01-21,,F2120,,27051,Active,"",-1.568837,53.962216,593894.014411467,5980266.14506236,0,0,1,0,0,0,0,0,0,0
fe864cfb-0782-4369-8343-951e2ad01992,fe864cfb-0782-4369-8343-951e2ad01992,360491,467950,,Wray,River Hindburn,1976-02-01,,724427,5156,72003,Active,"",-2.605742,54.105893,525777.736005157,5995375.32058943,0,0,0,1,0,0,0,0,0,0
dd3c856a-bb15-42d0-bbf4-d0a816f20946,dd3c856a-bb15-42d0-bbf4-d0a816f20946,386865,261935,184,Harford Hill,River Salwarpe,1960-12-19,,2011,2007,54011,Active,"",-2.193836,52.255419,555027.612302688,5789753.38700632,0,0,0,0,0,1,0,0,0,1
49ef0934-49fa-4150-b1d2-83b14f6e3724,49ef0934-49fa-4150-b1d2-83b14f6e3724,539125,224786,50.4,Griggs Bridge,River Quin,1978-05-01,,4939TH,7343,38029,Active,"",0.020897,51.904243,707805.498436133,5754700.96215112,0,0,0,0,0,0,0,0,0,0
49ef0934-49fa-4150-b1d2-83b14f6e3724_490001TP,49ef0934-49fa-4150-b1d2-83b14f6e3724,539123,224779,,Braughing Griggs Bridge,"",2013-03-11,,490001TP,,,Active,"",0.020865,51.90418,707803.588574945,5754693.86614692,0,0,0,0,0,0,0,0,0,0
a2240676-e92d-4ba4-97dc-30056b152269,a2240676-e92d-4ba4-97dc-30056b152269,442199,476603,,Dalton,Cod Beck,1988-12-15,,F2313,8063,,Active,"",-1.354886,54.183461,607357.125155797,6005183.87464393,0,0,1,0,0,0,0,0,0,0
e7d8bbb6-5bba-4057-9f49-a299482c3348,e7d8bbb6-5bba-4057-9f49-a299482c3348,428304,551226,1008.3,Chester Le Street,River Wear,1977-09-01,,024009,8046,24009,Active,"",-1.560651,54.855018,592401.46984882,6079607.28750597,0,0,0,0,1,0,0,0,0,0
fce4a0d2-2406-4c67-8bf4-35cd091e6545,fce4a0d2-2406-4c67-8bf4-35cd091e6545,465151,490255,37.1,Cherrytree Farm,Hodge Beck,1976-12-30,,F2570,8045,27054,Active,"",-1.000286,54.30374,630115.85442871,6019161.11837236,0,0,1,0,0,0,0,0,0,0
f06167e7-dd9e-4ce6-81c8-176d2d8b706d,f06167e7-dd9e-4ce6-81c8-176d2d8b706d,409465,342185,,Quixhill,River Churnet,1998-06-22,,4142,2153,28112,Active,"",-1.860483,52.976922,576512.797580219,5870310.79196461,0,0,1,0,0,0,0,0,0,0
a185e5ce-932f-40ae-a90f-6e77f1341e8e,a185e5ce-932f-40ae-a90f-6e77f1341e8e,504543,146821,16,Albury,"",1968-10-01,,3074TH,7237,39036,Active,"",-0.504721,51.211031,674285.453147376,5676251.75005301,0,0,0,0,0,0,0,0,0,0
155b4b28-40ae-48fa-b112-f442b74b8e8a,155b4b28-40ae-48fa-b112-f442b74b8e8a,469015,389525,529,Mattersey,River Idle,1961-04-26,,4015,2106,28015,Active,"",-0.96352,53.398039,635400.490731038,5918482.68456733,0,0,1,0,0,0,0,0,0,0
d21f1e9f-b6ba-4491-b6cf-faf227813d47,d21f1e9f-b6ba-4491-b6cf-faf227813d47,505326,207648,48.2,Bury Mill,River Gade,1975-04-01,,2841TH,7185,39089,Active,"",-0.475391,51.757619,674237.119328816,5737096.22959865,0,0,0,0,0,0,0,0,0,0
6afb7ae1-8e82-402d-ac57-d5f658c6d114,6afb7ae1-8e82-402d-ac57-d5f658c6d114,182866,59268,41,Gwills,River Gannel,1969-12-01,,SW85F055,3135,49004,Active,"",-5.056267,50.393097,353844.27839106,5584359.5031106,0,0,0,0,0,0,0,0,1,0
47ed0d00-d4ab-4f3a-84c9-c9571d1a1cc1,47ed0d00-d4ab-4f3a-84c9-c9571d1a1cc1,584198,342742,80,Burnham Overy Town,River Burn,1966-07-01,,034012,,34012,Active,"",0.740328,52.95042,751253.392453509,5873304.58279831,1,0,0,0,0,0,0,0,0,0
02ae6414-2983-456e-9d77-9289a9e40ec7,02ae6414-2983-456e-9d77-9289a9e40ec7,426065,368365,335,Chatsworth,River Derwent,1968-11-01,,4043,2118,28043,Active,"",-1.611159,53.211702,592746.53109335,5896721.351525,0,0,1,0,0,0,0,0,0,0
6cd9e6e4-dd4c-4dcf-85bf-dfbf175d450e,6cd9e6e4-dd4c-4dcf-85bf-dfbf175d450e,553288,105159,134.7,Sherman Bridge,Cuckmere River,1959-02-01,,351520004,,41003,Active,"",0.175071,50.82568,723604.201294354,5635245.3287762,0,0,0,0,0,0,0,1,0,0
d2dcdeb9-5c08-471b-8d86-e0e1bc1d4c9c,d2dcdeb9-5c08-471b-8d86-e0e1bc1d4c9c,302066,105773,226.1,Woodmill,River Culm,1962-01-29,,ST00F008,3259,45003,Active,"",-3.39234,50.843162,472376.993439824,5632457.48235404,0,0,0,0,0,0,0,0,1,0
b9933a62-f326-4d77-9206-ebb335161831,b9933a62-f326-4d77-9206-ebb335161831,447709,444121,818,Tadcaster,River Wharfe,1991-06-27,,F2002,8202,27089,Active,"",-1.275556,53.891069,613326.201320554,5972780.02496872,0,0,1,0,0,0,0,0,0,0
244c170e-922f-4e33-8b7d-d02dd50888d3,244c170e-922f-4e33-8b7d-d02dd50888d3,346825,555339,,Great Corby,River Eden,1996-12-11,,762505,5058,76017,Active,"",-2.830506,54.889932,510871.937149809,6082556.43042931,0,0,0,0,0,0,1,0,0,0
54d2b82b-cd8a-4fae-bde4-c11d9fb80af7,54d2b82b-cd8a-4fae-bde4-c11d9fb80af7,604880,147000,230,Wye,Great Stour,1962-10-01,,654306001,1145,40008,Active,"",0.9303,51.185494,774640.374995598,5677797.65648996,0,0,0,0,0,0,0,1,0,0
a3c4766d-b704-4819-913b-0be1d2ed7b3a,a3c4766d-b704-4819-913b-0be1d2ed7b3a,457362,132235,75.1,Sewards Bridge,"",1970-07-01,,152201001,1057,42008,Active,"",-1.182387,51.086567,627299.213866196,5661022.88790772,0,0,0,0,0,0,0,1,0,0
bce8bf9b-9b67-4bee-9c90-3c7f65c3444e,bce8bf9b-9b67-4bee-9c90-3c7f65c3444e,582733,246341,224.4,Westmill,River Stour,1960-06-18,,036008,6134,36008,Active,"",0.665604,52.085246,751125.544546384,5776860.9248055,1,0,0,0,0,0,0,0,0,0
64e8e5a8-214d-403e-8e00-d788ab94947a,64e8e5a8-214d-403e-8e00-d788ab94947a,391049,202805,,Chalford,"",2001-11-30,,2617,2175,,Active,"",-2.130978,51.723887,560024.646297348,5730686.22782973,0,0,0,0,0,1,0,0,0,1
a91edb17-a1da-42c6-9182-f6f90f5e51dc,a91edb17-a1da-42c6-9182-f6f90f5e51dc,569438,320487,25,Sugar Fen,Gaywood River,1993-11-01,,033077,,,Active,"",0.50931,52.755415,736800.272715711,5850839.10124404,1,0,0,0,0,0,0,0,0,0
1b5d160c-b736-4a4b-b8e1-9a6a95d92307,1b5d160c-b736-4a4b-b8e1-9a6a95d92307,426285,303345,368,Polesworth,River Anker,1966-09-07,,4026,2112,28026,Active,"",-1.613106,52.627223,593872.223916325,5831706.43149159,0,0,1,0,0,0,0,0,0,0
3d095df8-dd9d-4b1b-8cb3-39982654c9b4,3d095df8-dd9d-4b1b-8cb3-39982654c9b4,372180,439170,456,Henthorn,River Ribble,1976-01-01,,710305,5066,71006,Active,"",-2.424337,53.848003,537871.580209244,5966764.24000188,0,0,0,1,0,0,0,0,0,0
c4cbc20d-2913-47d5-8d62-a15e65403434,c4cbc20d-2913-47d5-8d62-a15e65403434,520832,271757,201.5,Brampton New Weir,Alconbury Brook,1995-06-02,,033080,6150,33020,Active,"",-0.228202,52.330598,688861.913524658,5801426.56424201,1,0,0,0,0,0,0,0,0,0
001fc3f6-5980-42be-b553-6a09c6b69b69,001fc3f6-5980-42be-b553-6a09c6b69b69,351625,306785,,Boreton Bridge,Cound Brook,1997-12-30,,2608,,,Active,"",-2.716578,52.65661,519171.098083984,5834110.02902423,0,0,0,0,0,1,0,0,0,1
b7db631d-9aa8-49c1-9a61-b2824d0b42c8,b7db631d-9aa8-49c1-9a61-b2824d0b42c8,267293,106820,71.4,Taw Bridge,River Taw,1973-11-12,,SS60F015,3123,50007,Active,"",-3.88636,50.845636,437598.830156325,5633033.55520244,0,0,0,0,0,0,0,0,1,0
35b916f9-d420-425f-807f-f927415db702,35b916f9-d420-425f-807f-f927415db702,487650,244250,,Newport Pagnell Tota,River Great Ouse,1979-10-03,,033037,,33037,Active,"",-0.722105,52.08966,656056.080012567,5773458.6048595,1,0,0,0,0,0,0,0,0,0
70a6e855-44fd-424f-b3e1-b9e46da57f1c,70a6e855-44fd-424f-b3e1-b9e46da57f1c,457135,371405,35,Cuckney,River Poulter,1969-07-24,,4044,,28044,Active,"",-1.145421,53.2366,623773.917974695,5900195.87689595,0,0,1,0,0,0,0,0,0,0
9336811c-2a61-4a07-a5a5-fa21be42137c,9336811c-2a61-4a07-a5a5-fa21be42137c,408295,350165,40,Waterhouses,River Hamps,1968-03-28,,4041,2117,28041,Active,"",-1.877705,53.048674,575231.574307483,5878273.98151144,0,0,1,0,0,0,0,0,0,0
65d8a904-f927-415c-b501-a4f8e3325e9e,65d8a904-f927-415c-b501-a4f8e3325e9e,381408,168806,102,Middlehill,By Brook,1981-12-30,,530450,3040,53028,Active,"",-2.268742,51.417955,550849.402235754,5696558.39989814,0,0,0,0,0,1,0,0,0,1
eeeac5e4-672d-4472-893d-6ce4c6bab120,eeeac5e4-672d-4472-893d-6ce4c6bab120,366665,248863,78.5,Bishops Frome,"",1971-10-01,,055028,4003,55028,Active,"",-2.488459,52.137044,535010.115947062,5776404.20127823,0,0,0,0,0,1,0,0,0,1
d2cd29dc-cf55-4a2e-9836-7c2ab0f8912c,d2cd29dc-cf55-4a2e-9836-7c2ab0f8912c,239787,85515,112.7,Tinhay,River Thrushel,1969-09-30,,SX38F071,3178,47008,Active,"",-4.267489,50.647232,410389.511885892,5611363.43534352,0,0,0,0,0,0,0,0,1,0
58bbe65d-7372-4494-b5fc-c23788787ae7,58bbe65d-7372-4494-b5fc-c23788787ae7,444474,115337,,Riverside Park,River Itchen,1982-05-25,,152210001,1056,42023,Active,"",-1.368447,50.935768,614640.244555176,5643949.58219153,0,0,0,0,0,0,0,1,0,0
2e4cd2b4-2d48-4ff5-882c-5ce9638491e9,2e4cd2b4-2d48-4ff5-882c-5ce9638491e9,335965,503406,57.4,Jeffy Knotts,River Brathay,1976-01-01,,735123,5161,73014,Active,"",-2.98839,54.422024,500753.311976272,6030477.9734289,0,0,0,1,0,0,0,0,0,0
a5f8e95f-d24c-4a37-84e1-e346594a47b4,a5f8e95f-d24c-4a37-84e1-e346594a47b4,503161,391088,,Ancholme Bishopbridge,River Ancholme,1968-03-01,,029004,,29004,Active,"",-0.44965,53.406524,669526.826538596,5920524.66093037,0,0,1,0,0,0,0,0,0,0
7445ef55-5e25-43d9-9e85-83406670fc65,7445ef55-5e25-43d9-9e85-83406670fc65,349935,496525,70.6,Bowston,River Kent,1999-10-01,,730120,5017,73017,Active,"",-2.771951,54.36176,514818.589095473,6023796.43814471,0,0,0,1,0,0,0,0,0,0
7ffdc72e-bc0c-4172-bfe5-342a11fe53e7,7ffdc72e-bc0c-4172-bfe5-342a11fe53e7,350883,487419,209,Sedgwick,River Kent,1968-11-01,,730511,5126,73005,Active,"",-2.755861,54.280023,515895.591314033,6014705.38021551,0,0,0,1,0,0,0,0,0,0
c18ebd8a-6bed-4687-8b80-0f20e9c2b22b,c18ebd8a-6bed-4687-8b80-0f20e9c2b22b,510916,211904,62.6,Redbourn Ver,River Ver,1987-07-13,,2815TH,7180,39125,Active,"",-0.393076,51.794792,679769.383321439,5741429.46670092,0,0,0,0,0,0,0,0,0,0
23d8a627-dd63-47a1-a3ff-435a573da869,23d8a627-dd63-47a1-a3ff-435a573da869,379126,420168,100.7,Irwell Vale,River Irwell,1996-01-21,,690140,5075,69022,Active,"",-2.317469,53.677543,545084.316528421,5947862.26976533,0,0,0,1,0,0,0,0,0,0
fff0c2da-54e5-40af-9618-a97848d71c2e,fff0c2da-54e5-40af-9618-a97848d71c2e,523610,188025,36.4,Brent Cross,River Brent,1988-10-01,,3820TH,7282,39084,Active,"",-0.217549,51.577539,692792.432850258,5717721.42807398,0,0,0,0,0,0,0,0,0,0
02c30d3b-4cab-4632-a4e9-b293706a02fb,02c30d3b-4cab-4632-a4e9-b293706a02fb,307848,120279,57.2,Greenham,River Tone,1967-02-01,,520540,3083,52014,Active,"",-3.313908,50.974522,477961.163222605,5647038.54609869,0,0,0,0,0,0,0,0,1,0
24e09f89-9598-468e-bdad-12cd705a93a9,24e09f89-9598-468e-bdad-12cd705a93a9,519359,186216,21.8,Wembley,Wealdstone Brook,1979-01-03,,3839TH,7288,39096,Active,"",-0.27948,51.562196,688565.55676107,5715853.95564121,0,0,0,0,0,0,0,0,0,0
bc20e967-2251-471b-b636-ff517f9e3d39,bc20e967-2251-471b-b636-ff517f9e3d39,477405,483621,7.6,Pickering Costa Beck,Costa Beck,1970-08-07,,F2518,,27038,Active,"",-0.813726,54.242425,642464.384612358,6012700.67579438,0,0,1,0,0,0,0,0,0,0
8820d897-a09e-4857-8095-5834fee6962f,8820d897-a09e-4857-8095-5834fee6962f,378235,276165,4325,Bewdley,River Severn,1921-04-01,,2001,2001,54001,Active,"",-2.321186,52.383072,546201.855037264,5803862.75897341,0,0,0,0,0,1,0,0,0,1
86993eff-b766-4bee-8ef3-e0a738008418,86993eff-b766-4bee-8ef3-e0a738008418,585090,284360,688.5,Abbey Heath,"",1968-03-20,,033034,6247,33034,Active,"",0.720787,52.425882,752957.445478733,5814921.50229738,1,0,0,0,0,0,0,0,0,0
fad760ef-0c6e-48df-a1c5-01d3f471cbb0,fad760ef-0c6e-48df-a1c5-01d3f471cbb0,322898,125093,,Taunton Market,River Tone,1998-01-01,,520575,3364,,Active,"",-3.100618,51.020017,492942.714420804,5652055.67521387,0,0,0,0,0,0,0,0,1,0
ae3ba171-5f03-41cb-a4bf-bb8c568b8c1b,ae3ba171-5f03-41cb-a4bf-bb8c568b8c1b,463085,387125,231,Blyth Ryton,River Ryton,1983-01-01,,4091,2141,28091,Active,"",-1.053168,53.37721,629503.909160108,5915999.48248766,0,0,1,0,0,0,0,0,0,0
ac819d1a-0f60-414f-b155-4b6e095ecc8c,ac819d1a-0f60-414f-b155-4b6e095ecc8c,500830,343020,,Wilsford,River Slea,1990-08-14,,030032,,,Active,"",-0.499853,52.975048,667867.899885186,5872419.69494929,1,0,0,0,0,0,0,0,0,0
c19762f5-2d97-4f44-99fe-e54536bf018c,c19762f5-2d97-4f44-99fe-e54536bf018c,361482,242705,143.9,Yarkhill,"",1968-10-01,,055018,4036,55018,Active,"",-2.563485,52.081345,529912.574862474,5770175.58905695,0,0,0,0,0,1,0,0,0,1
c19762f5-2d97-4f44-99fe-e54536bf018c_459860,c19762f5-2d97-4f44-99fe-e54536bf018c,361475,242699,,Yarkhill,"",2014-12-06,,459860,4036,,Active,"",-2.563586,52.081291,529905.689871248,5770169.54138918,0,0,0,0,0,1,0,0,0,1
603fcc73-a9aa-4831-bf66-6a1a2b0a04d7,603fcc73-a9aa-4831-bf66-6a1a2b0a04d7,248301,74511,,Tavistock Abbey Bridge,River Tavy,1991-07-25,,SX47F022,3340,47024,Active,"",-4.142658,50.550625,419049.165970385,5600477.97710658,0,0,0,0,0,0,0,0,1,0
c5b13f08-cdf0-41ab-8bbf-7b8587744459,c5b13f08-cdf0-41ab-8bbf-7b8587744459,493627,479462,12.9,Snainton Ings,Brompton Beck,1981-02-13,,F2760,8188,27073,Active,"",-0.566177,54.202353,658746.228949432,6008771.31746233,0,0,1,0,0,0,0,0,0,0
2292891b-9138-44a5-a7e1-d31f4c4b7e73,2292891b-9138-44a5-a7e1-d31f4c4b7e73,351477,496104,34.6,Sprint Mill,River Sprint,1976-01-01,,730203,5130,73009,Active,"",-2.748154,54.358126,516366.355889988,6023397.35748653,0,0,0,1,0,0,0,0,0,0
c0b28d37-0ec8-4944-a45c-4287cc506a26,c0b28d37-0ec8-4944-a45c-4287cc506a26,643097,267952,49,Middleton,Minsmere River,1976-09-03,,035022,,,Active,"",1.560484,52.255975,811208.465113007,5799311.97992119,1,0,0,0,0,0,0,0,0,0
469d01ff-5fcb-4611-a640-812d59f68be6,469d01ff-5fcb-4611-a640-812d59f68be6,436447,428102,,Oulton Farrer Lane,Oulton Beck,1986-11-01,,F1715,8075,27081,Active,"",-1.448796,53.748009,602290.056857182,5956602.37037094,0,0,1,0,0,0,0,0,0,0
4938555f-b1ec-4d7c-8c40-211177987e14,4938555f-b1ec-4d7c-8c40-211177987e14,238896,84249,222.9,Lifton Park,River Lyd,1969-11-01,,SX38F072,3202,47006,Active,"",-4.279531,50.63561,409515.862048221,5610085.80203048,0,0,0,0,0,0,0,0,1,0
7014b422-27a7-42b6-9619-5cd6fe16e5e7,7014b422-27a7-42b6-9619-5cd6fe16e5e7,400672,109989,,Bowerswain,Gussage Stream,1980-08-01,,433520,,,Active,"",-1.991809,50.889383,570911.696096344,5638008.09436312,0,0,0,0,0,0,0,0,1,0
94bab207-6492-444c-b80d-0ff2c089432f,94bab207-6492-444c-b80d-0ff2c089432f,559619,180384,91,Stifford,Mar Dyke,1974-10-11,,037034,,37034,"",Data Temporarily Suspended,0.298242,51.499854,728912.366075273,5710571.82128026,0,0,0,0,0,0,0,0,0,0
20940d11-3691-429d-b9e1-62646f8e3e71,20940d11-3691-429d-b9e1-62646f8e3e71,487316,508248,,Briggswath,River Esk,1992-10-02,,F2902,8233,27092,Active,"",-0.654478,54.462097,652026.368356956,6037469.5108058,0,0,1,0,0,0,0,0,0,0
2f55ad72-c6da-4ac9-8249-6339780f5b74,2f55ad72-c6da-4ac9-8249-6339780f5b74,352558,314213,,Uffington,Unnamed Watercourse,2007-09-27,,26121,,,Active,"",-2.70386,52.723463,520000.790021599,5841549.91628861,0,0,0,0,0,1,0,0,0,1
4e7e6fd4-ee52-4b9d-aac7-626af67cc5ac,4e7e6fd4-ee52-4b9d-aac7-626af67cc5ac,575534,205471,60.6,Sandon Bridge,Sandon Brook,1963-09-01,,037013,6188,37013,Active,"",0.53985,51.720483,744487.155900256,5735882.28994282,1,0,0,0,0,0,0,0,0,0
ed9676ff-3b2e-4282-8a67-6882b2222e02,ed9676ff-3b2e-4282-8a67-6882b2222e02,390663,391849,150,Portwood,River Tame,1969-12-30,,692423,5112,69027,Active,"",-2.141961,53.42334,557017.881520304,5919708.1649798,0,0,0,1,0,0,0,0,0,0
4c0ab2d3-ff26-47a2-bdce-abfbb07c6e0a,4c0ab2d3-ff26-47a2-bdce-abfbb07c6e0a,368490,393889,,Little Woolden Hall,Glaze Brook,1995-06-30,,693032,5228,69005,Active,"",-2.475817,53.440813,534818.639771837,5921437.10175671,0,0,0,1,0,0,0,0,0,0
f5b37267-c78d-4e3e-9fca-0a380d46ffc8,f5b37267-c78d-4e3e-9fca-0a380d46ffc8,409146,449298,427,Addingham,River Wharfe,1973-12-18,,F1903,8001,27043,Active,"",-1.862157,53.939703,574691.327669208,5977412.60569588,0,0,1,0,0,0,0,0,0,0
c357b418-078d-4ac2-9cf3-27eee4c4ab78,c357b418-078d-4ac2-9cf3-27eee4c4ab78,505504,205809,61.1,Two Waters Road,River Bulbourne,1976-09-01,,2846TH,7187,,Active,"",-0.47337,51.741057,674440.394938088,5735259.48426865,0,0,0,0,0,0,0,0,0,0
34e23121-3c10-454d-80dc-45d824b9e2cf,34e23121-3c10-454d-80dc-45d824b9e2cf,452320,213730,287,Islip Weir,"",1995-02-16,,1489TH,9082,39140,Active,"",-1.242338,51.819748,621144.024870753,5742451.2329776,0,0,0,0,0,0,0,0,0,0
e3cbc7c6-f62f-4848-9b2c-75e0da09b9a3,e3cbc7c6-f62f-4848-9b2c-75e0da09b9a3,280987,78672,86.9,Bovey Parke,River Bovey,2004-09-29,,SX87U053,3207,46013,Active,"",-3.682853,50.595603,451669.389298399,5605078.52106577,0,0,0,0,0,0,0,0,1,0
54b8c99b-9301-4361-9edb-17abdf585144,54b8c99b-9301-4361-9edb-17abdf585144,510880,310510,341.9,King Street,Greatford Cut,1960-10-01,,031202,,,Active,"",-0.36128,52.680941,678371.473435233,5840046.30190198,1,0,0,0,0,0,0,0,0,0
d7ba84de-0fa2-4577-9ef4-978335a86360,d7ba84de-0fa2-4577-9ef4-978335a86360,551059,174556,119.7,Crayford,River Cray,1969-07-01,,451220001,,40016,Active,"",0.172527,51.44984,720430.354873933,5704625.62420788,0,0,0,0,0,0,0,0,0,0
724ddcb2-fed1-4e25-b7b7-055348b41fc2,724ddcb2-fed1-4e25-b7b7-055348b41fc2,213262,76556,21.5,De Lank,De Lank River,1969-11-01,,SX17F063,3136,49003,Active,"",-4.637771,50.55885,383994.966307622,5602049.77950776,0,0,0,0,0,0,0,0,1,0
724ddcb2-fed1-4e25-b7b7-055348b41fc2_384343,724ddcb2-fed1-4e25-b7b7-055348b41fc2,213262,76556,,De Lank,"",2000-11-23,,384343,,,Active,"",-4.637771,50.55885,383994.966307622,5602049.77950776,0,0,0,0,0,0,0,0,1,0
47c4f71d-7016-4adb-b0e6-e84178f82a43,47c4f71d-7016-4adb-b0e6-e84178f82a43,387025,263145,53,Wards Bridge,Hadley Brook,1987-12-10,,2193,,54096,Active,"",-2.191539,52.266301,555170.893064284,5790965.48478416,0,0,0,0,0,1,0,0,0,1
4cdef73e-b55b-4614-bee7-278185b96fae,4cdef73e-b55b-4614-bee7-278185b96fae,336852,144345,,Eastern Moor Bridge,Cripps River,2023-02-15,,521189,,,Active,"",-2.905079,51.194815,506632.636715155,5671493.69669195,0,0,0,0,0,0,0,0,1,0
12ede3c0-861a-45f9-88a8-6170ff13a6ae,12ede3c0-861a-45f9-88a8-6170ff13a6ae,303490,504490,44.8,Calder Hall,River Calder,1973-10-02,,743509,5027,74006,Active,"",-3.489083,54.426631,468269.653746943,6031100.67813944,0,0,0,1,0,0,0,0,0,0
12ede3c0-861a-45f9-88a8-6170ff13a6ae_591419,12ede3c0-861a-45f9-88a8-6170ff13a6ae,303516,504486,,Calder Hall,"",1998-05-06,,591419,,,Active,"",-3.488681,54.4266,468295.710256788,6031097.04785209,0,0,0,1,0,0,0,0,0,0
895e30b6-b92a-4ef1-8735-e7dbd2dd573f,895e30b6-b92a-4ef1-8735-e7dbd2dd573f,619214,329614,164.7,Ingworth,River Bure,1959-06-01,,034003,6099,34003,Active,"",1.251856,52.819451,786461.648258758,5860661.49880757,1,0,0,0,0,0,0,0,0,0
9c263b41-8984-424c-aa50-27647a0ee184,9c263b41-8984-424c-aa50-27647a0ee184,511722,133150,138.9,Alfoldean,River Arun,1970-05-01,,254250008,,41019,Active,"",-0.406225,51.086792,681651.3440838,5662676.82441124,0,0,0,0,0,0,0,1,0,0
f387d5f1-d06d-48fd-92a1-ede9bdebdc10,f387d5f1-d06d-48fd-92a1-ede9bdebdc10,383014,204627,198,Ebley Mill,"",1969-04-01,,2027,2019,54027,Active,"",-2.247391,51.740081,551965.367087849,5732397.9191262,0,0,0,0,0,1,0,0,0,1
db5a4b77-c057-48a5-a174-f99045ad9bf2,db5a4b77-c057-48a5-a174-f99045ad9bf2,370743,99087,21.4,South House,River Piddle,1992-01-01,,444110,3269,44012,Active,"",-2.41643,50.790604,541132.769237653,5626701.99273037,0,0,0,0,0,0,0,0,1,0
20152e19-e61b-40ff-ae0a-bfd520b41ad1,20152e19-e61b-40ff-ae0a-bfd520b41ad1,389978,642377,1264,Heaton Mill,River Till,2001-11-22,,021038,8290,21035,Active,"",-2.160907,55.674765,552770.340096111,6170201.90028178,0,0,0,0,0,0,1,0,0,0
bce9c8be-26c4-40b1-b852-715b016440e5,bce9c8be-26c4-40b1-b852-715b016440e5,477976,437277,,Holme House Farm,River Foulness,1990-12-07,,F3412,9141,26012,Active,"",-0.816848,53.825908,643690.513380959,5966362.65179001,0,0,1,0,0,0,0,0,0,0
990c9d7a-cc5b-4ad0-b1f1-7d87642398d9,990c9d7a-cc5b-4ad0-b1f1-7d87642398d9,374655,323865,34.8,Whitleyford Bridge,Lonco Brook,1994-02-09,,2602,,54100,Active,"",-2.377451,52.811719,541960.794641694,5851507.76330165,0,0,0,0,0,1,0,0,0,1
2530158f-c930-4664-acb5-ce38d19d3bdc,2530158f-c930-4664-acb5-ce38d19d3bdc,380674,407728,186,Blackford Bridge,River Roch,1976-01-01,,690205,5013,69023,Active,"",-2.293258,53.565791,546807.015819374,5935445.3792859,0,0,0,1,0,0,0,0,0,0
ccd2dcd2-9439-41e6-9e0a-cf124e772a68,ccd2dcd2-9439-41e6-9e0a-cf124e772a68,443213,385749,352,Woodhouse Mill,River Rother,1974-12-28,,F0304,9044,27025,Active,"",-1.352044,53.366838,609650.937659373,5914345.06735426,0,0,1,0,0,0,0,0,0,0
ccd2dcd2-9439-41e6-9e0a-cf124e772a68_084532,ccd2dcd2-9439-41e6-9e0a-cf124e772a68,443256,385783,,Woodhouse Mill,"",2002-09-06,,084532,,,Active,"",-1.351393,53.36714,609693.474281622,5914379.66061723,0,0,1,0,0,0,0,0,0,0
116a4260-8c89-421c-83fd-107fed334eaf,116a4260-8c89-421c-83fd-107fed334eaf,602762,287793,28.3,Quidenham,"",1967-05-09,,033045,6275,33045,Active,"",0.982414,52.450441,770586.362656996,5818600.23929895,1,0,0,0,0,0,0,0,0,0
9aa20788-e7de-449a-8b6c-2b623ba4d528,9aa20788-e7de-449a-8b6c-2b623ba4d528,474170,286380,20.8,Jordan,River Jordan,1970-04-11,,031022,6019,31022,Active,"",-0.909557,52.470319,641993.131538905,5815405.14686315,1,0,0,0,0,0,0,0,0,0
aeb7fc23-8687-4548-9f2f-c21b4cc0e59b,aeb7fc23-8687-4548-9f2f-c21b4cc0e59b,382220,93369,116.6,Briantspuddle,River Piddle,1992-01-01,,444310,3276,44014,Active,"",-2.253329,50.739653,552685.973872492,5621139.78271378,0,0,0,0,0,0,0,0,1,0
279d5197-0819-4a62-89be-0aa177425e62,279d5197-0819-4a62-89be-0aa177425e62,562886,223350,72.5,Churchend,River Chelmer,1963-07-30,,037011,6145,37011,Active,"",0.36531,51.884909,731590.72706875,5753591.4085816,1,0,0,0,0,0,0,0,0,0
a941c6ca-6b2e-45b3-a515-198c39d4ceaa,a941c6ca-6b2e-45b3-a515-198c39d4ceaa,501810,375820,,Nettleham Beck,Nettleham Beck,1988-02-11,,030030,9287,,Active,"",-0.474867,53.269596,668389.652870382,5905236.28342506,1,0,0,0,0,0,0,0,0,0
e268ebd4-97ae-4e44-857d-d01c4d838027,e268ebd4-97ae-4e44-857d-d01c4d838027,252141,61175,79.2,Carnwood,River Plym,1971-05-31,,SX56F056,3197,47011,Active,"",-4.083214,50.431758,423067.530362463,5587197.95258169,0,0,0,0,0,0,0,0,1,0
1a707394-5443-4c2d-b903-8ad6e243a45e,1a707394-5443-4c2d-b903-8ad6e243a45e,370256,437593,1053,New Jumbles Rock,River Ribble,1979-05-01,,713056,5099,71009,Active,"",-2.453428,53.833722,535970.004172739,5965160.2590185,0,0,0,1,0,0,0,0,0,0
0ed899ca-adc1-430f-9207-c37f1766cdbe,0ed899ca-adc1-430f-9207-c37f1766cdbe,495580,365130,,North Hykeham,River Witham,1998-04-01,,U30001,6044,,Active,"",-0.57145,53.174694,662308.637619865,5894458.25655243,1,0,0,0,0,0,0,0,0,0
cea9b5f0-588a-4d9c-a43c-eceffa56b782,cea9b5f0-588a-4d9c-a43c-eceffa56b782,371180,127819,,Wincanton A303,River Cale,2006-10-30,,433210,3298,,Active,"",-2.41251,51.048987,541180.362683236,5655436.64111612,0,0,0,0,0,0,0,0,1,0
0cd2802e-cd9a-41f4-abc1-317bf9fd7a1c,0cd2802e-cd9a-41f4-abc1-317bf9fd7a1c,376486,513108,,Great Musgrave Bridge,River Eden,2000-08-03,,760112,5059,76021,Active,"",-2.364692,54.51271,541130.476984474,6040754.14351757,0,0,0,0,0,0,1,0,0,0
4d9c9969-529b-4990-850c-3a3cb03eb110,4d9c9969-529b-4990-850c-3a3cb03eb110,348618,558072,335,Greenholme,River Irthing,1975-01-08,,763308,5183,76008,Active,"",-2.803045,54.914677,512625.635091583,6085314.58724573,0,0,0,0,0,0,1,0,0,0
90734a50-bf66-44ae-8f4a-d180130ca850,90734a50-bf66-44ae-8f4a-d180130ca850,424355,328305,23,Rolleston,Rolleston Brook,1980-01-16,,4076,,,Active,"",-1.639774,52.851687,591595.453699777,5856638.83265538,0,0,1,0,0,0,0,0,0,0
0f409f22-3a10-4200-a690-c6a72902bbdf,0f409f22-3a10-4200-a690-c6a72902bbdf,550537,224047,26,Gipsy Lane,Stansted Brook,1964-11-06,,5129TH,7349,38028,Active,"",0.186331,51.89464,719229.638325326,5754118.78804506,0,0,0,0,0,0,0,0,0,0
05784319-693a-4d75-b29e-32f01a99ee4f,05784319-693a-4d75-b29e-32f01a99ee4f,417280,530900,455,Witton Park,River Wear,1972-12-01,,024008,8219,24008,Active,"",-1.733561,54.67286,581667.838752283,6059125.02253224,0,0,0,0,1,0,0,0,0,0
09aaf1dd-28ea-4230-9670-7709ee7aa970,09aaf1dd-28ea-4230-9670-7709ee7aa970,395536,172969,99.2,Stanley,River Marden,1970-01-01,,530850,3038,53013,Active,"",-2.06563,51.455677,564919.433518623,5700913.91016124,0,0,0,0,0,1,0,0,0,1
12e41a1b-b72e-4ea2-9a45-ce459d156560,12e41a1b-b72e-4ea2-9a45-ce459d156560,586537,335464,,South Creake,River Burn,1999-08-11,,034050,6093,,Active,"",0.770922,52.884266,753694.422488122,5866057.57713616,1,0,0,0,0,0,0,0,0,0
89ccf565-fb71-43b7-8dba-d843e01363c3,89ccf565-fb71-43b7-8dba-d843e01363c3,539251,209761,,Rye Meads,Rye Meads Effluent Channel,1977-05-01,,5302TH,,,Active,"",0.016685,51.769207,708137.923751543,5739675.18616245,0,0,0,0,0,0,0,0,0,0
89ccf565-fb71-43b7-8dba-d843e01363c3_244027TP,89ccf565-fb71-43b7-8dba-d843e01363c3,539248,209765,,Rye Meads,"",1989-05-18,,244027TP,,,Active,"",0.016643,51.769243,708134.860871557,5739679.06879498,0,0,0,0,0,0,0,0,0,0
c2ced941-2e52-41f7-a7d3-65d3a8064c03,c2ced941-2e52-41f7-a7d3-65d3a8064c03,362982,89732,19.9,Winterbourne Steepleton,South Winterborne,1974-12-01,,445610,,44008,Active,"",-2.525588,50.706036,533499.134365509,5617243.14072692,0,0,0,0,0,0,0,0,1,0
0b61ef5d-3db7-42de-ae00-ebd8df2b7312,0b61ef5d-3db7-42de-ae00-ebd8df2b7312,388275,412740,,Rochdale,River Roch,1993-02-26,,690203,5231,69803,Active,"",-2.178685,53.611067,554336.850623639,5940563.71975696,0,0,0,1,0,0,0,0,0,0
68db9881-47c2-4fd3-b08f-738aa59dcc3d,68db9881-47c2-4fd3-b08f-738aa59dcc3d,487240,339940,,Allington,Foston Beck,1988-02-11,,030031,6066,,Active,"",-0.703007,52.949749,654319.672444794,5869149.93625801,1,0,0,0,0,0,0,0,0,0
250bacb0-6ff6-4252-b0ff-e4e3bd2c69ba,250bacb0-6ff6-4252-b0ff-e4e3bd2c69ba,543166,210394,21.4,Elizabeth Way,Canons Brook,1953-10-01,,5189TH,7355,38007,Active,"",0.073644,51.773908,712044.922054356,5740362.03779691,0,0,0,0,0,0,0,0,0,0
cc169352-30d8-4fc4-884e-b37cafbfad0f,cc169352-30d8-4fc4-884e-b37cafbfad0f,509500,307800,717.4,Tallington Total,River Welland,1981-02-01,,031804,,31004,Active,"",-0.382584,52.656869,677028.942709051,5837316.81951293,1,0,0,0,0,0,0,0,0,0
f4b5a4cd-85af-4782-9be0-97782029e7ab,f4b5a4cd-85af-4782-9be0-97782029e7ab,386705,286155,89.9,Prestwood,River Stour,1972-08-01,,2063,,54063,Active,"",-2.197148,52.473154,554532.789597999,5813968.88487323,0,0,0,0,0,1,0,0,0,1
fee4928e-59c8-4f42-b1b1-9299ae2d71f1,fee4928e-59c8-4f42-b1b1-9299ae2d71f1,444290,374600,67.9,Staveley,River Doe Lea,1970-07-22,,F0103,8197,27040,Active,"",-1.337413,53.266541,610884.061794619,5903211.17155649,0,0,1,0,0,0,0,0,0,0
024f218d-9a70-43b7-8ea2-7d038eeb2cff,024f218d-9a70-43b7-8ea2-7d038eeb2cff,513058,166063,465,Esher,River Mole,1984-12-18,,3290TH,7263,39104,Active,"",-0.376781,51.382361,682539.15933344,5695612.20537287,0,0,0,0,0,0,0,0,0,0
ebc1166c-4d4e-4b0a-ae37-f8463436c5de,ebc1166c-4d4e-4b0a-ae37-f8463436c5de,416080,108301,17.2,Moyles Court,"",2001-09-28,,432800,3313,43025,Active,"",-1.772829,50.873984,586341.803144249,5636528.93467019,0,0,0,0,0,0,0,0,1,0
ee1fdcfd-15f4-4a19-8356-acee538ae78d,ee1fdcfd-15f4-4a19-8356-acee538ae78d,537214,172598,38.3,Sydenham,"",1978-04-03,,4369TH,7319,39058,Active,"",-0.027344,51.435766,706609.532558174,5702478.02721196,0,0,0,0,0,0,0,0,0,0
f8531ce2-c39e-4eaa-89a9-67302cacc66f,f8531ce2-c39e-4eaa-89a9-67302cacc66f,442155,142245,,Bransbury,River Dever,1986-06-16,,151804002,,42027,Active,"",-1.398321,51.177889,611955.761383649,5670826.42110922,0,0,0,0,0,0,0,1,0,0
91375047-e239-472d-93e4-96e1413b5567,91375047-e239-472d-93e4-96e1413b5567,391444,189328,73.6,Brokenborough,Tetbury Avon,1977-11-03,,530650,3034,53024,Active,"",-2.124926,51.602719,560604.105486695,5717215.70966547,0,0,0,0,0,1,0,0,0,1
e9f95177-02be-41bb-8728-40fe217bb6e1,e9f95177-02be-41bb-8728-40fe217bb6e1,416073,220936,65,"",River Windrush,1995-07-02,,1020TH,,39142,Active,"",-1.767867,51.886747,584798.341777018,5749159.44750979,0,0,0,0,0,0,0,0,0,0
213d70b2-894b-406b-9dc3-31d3ccec7f54,213d70b2-894b-406b-9dc3-31d3ccec7f54,456845,455373,3315,Skelton,River Ouse,1969-09-18,,F2405,8184,27009,Active,"",-1.134472,53.991268,622303.440557678,5984161.01353748,0,0,1,0,0,0,0,0,0,0
c4239733-713f-419c-a854-26de2cdb7d66,c4239733-713f-419c-a854-26de2cdb7d66,386125,290565,,Swindon,Smestow Brook,1974-01-01,,2067,2032,,Active,"",-2.205871,52.512785,553891.829335825,5818370.46977319,0,0,0,0,0,1,0,0,0,1
eb97fa6f-d2c5-49db-8829-7b994b0a68be,eb97fa6f-d2c5-49db-8829-7b994b0a68be,495710,308880,36.5,North Brook,North Brook,1969-02-05,,031016,,31016,Active,"",-0.586069,52.669181,663222.580174709,5838205.38711611,1,0,0,0,0,0,0,0,0,0
2a87d87d-fcb7-4a46-9363-fd07fb25752a,2a87d87d-fcb7-4a46-9363-fd07fb25752a,584463,215816,247.3,Appleford Bridge,River Blackwater,1962-10-01,,037010,6143,37010,Active,"",0.674457,51.810531,753276.209377872,5746352.39026661,1,0,0,0,0,0,0,0,0,0
2708da58-f4ea-46cb-943a-fcf3fa1ee9bc,2708da58-f4ea-46cb-943a-fcf3fa1ee9bc,433287,271535,347,Stareton,River Avon,1962-09-26,,2019,9072,54019,Active,"",-1.512833,52.340881,601314.658765801,5799994.09388882,0,0,0,0,0,1,0,0,0,1
d45605aa-9a74-44d7-a684-5c9f3ca763da,d45605aa-9a74-44d7-a684-5c9f3ca763da,539156,209271,280,Roydon Glen Faba,River Stort,1985-02-07,,5190TH,7356,38027,Active,"",0.015113,51.764828,708049.629919229,5739183.830524,0,0,0,0,0,0,0,0,0,0
c8f86ce2-0e87-441d-937b-17cce6b52e12,c8f86ce2-0e87-441d-937b-17cce6b52e12,377105,276425,40.8,Oak Cottage,Dowles Brook,1971-08-24,,2034,2023,54034,Active,"",-2.337805,52.385363,545068.402413198,5804107.09729794,0,0,0,0,0,1,0,0,0,1
c4914aa1-8d0d-4d70-9918-e760fa9aaf88,c4914aa1-8d0d-4d70-9918-e760fa9aaf88,599617,292307,,Redbridge,River Thet,1979-10-04,,033046,6250,33046,Active,"",0.938899,52.492126,767377.893733199,5823071.87472353,1,0,0,0,0,0,0,0,0,0
23312df2-1dd7-41d4-b5e7-fb675bb070c0,23312df2-1dd7-41d4-b5e7-fb675bb070c0,394012,416543,14.8,Littleborough,River Roch,1993-12-02,,690206,5199,69047,Active,"",-2.092047,53.645347,560019.878938525,5944446.98424639,0,0,0,1,0,0,0,0,0,0
57e8d163-310e-4d4c-a0f2-86055cc91da0,57e8d163-310e-4d4c-a0f2-86055cc91da0,364555,304405,3717,Buildwas,River Severn,1977-09-07,,2134,2058,54095,Active,"",-2.525182,52.636218,532132.296995926,5831909.84870072,0,0,0,0,0,1,0,0,0,1
52cd7d3c-b978-4f25-bb06-6b0b2ddc8cd3,52cd7d3c-b978-4f25-bb06-6b0b2ddc8cd3,365901,147999,,St Dunstans Spring,Mells River,1981-12-15,,531210,,,Active,"",-2.489733,51.230148,535627.703384399,5675542.4155319,0,0,0,0,0,1,0,0,0,1
162e2bb4-a4f7-48a7-910b-65a4f5cd0a4f,162e2bb4-a4f7-48a7-910b-65a4f5cd0a4f,504677,186493,94.8,Denham Lodge,River Misborne,1984-07-01,,2879TH,,39102,Active,"",-0.49112,51.567599,673877.89329071,5715930.07458528,0,0,0,0,0,0,0,0,0,0
d977db74-52e3-46a6-91e8-42aa82d83e68,d977db74-52e3-46a6-91e8-42aa82d83e68,368141,169869,47.9,Bitton,River Boyd,1973-11-01,,530350,3039,53017,Active,"",-2.459617,51.42692,537569.300731708,5697440.26068156,0,0,0,0,0,1,0,0,0,1
6655e67c-b0ec-43b4-9ab0-15efa569578a,6655e67c-b0ec-43b4-9ab0-15efa569578a,367435,355174,92.5,Marshfield Bridge,Valley Brook,1957-10-01,,680403,5097,68004,Active,"",-2.487721,53.092762,534305.378034482,5882712.24686912,0,0,0,1,0,0,0,0,0,0
34202203-d1dc-4812-843a-715467152795,34202203-d1dc-4812-843a-715467152795,293493,125960,159.7,Pixton,River Exe,1966-04-28,,SS92F014,3256,45009,Active,"",-3.519966,51.02311,463532.426286457,5652523.45352706,0,0,0,0,0,0,0,0,1,0
d7ea5745-0ca5-40fa-b5c9-3f788256411b,d7ea5745-0ca5-40fa-b5c9-3f788256411b,320576,125016,202,Bishops Hull,River Tone,1961-02-01,,520560,3082,52005,"",Data Temporarily Suspended,-3.133699,51.019008,490622.230347041,5651947.15851632,0,0,0,0,0,0,0,0,1,0
f7897367-bb3b-4599-8184-b8941e889c9c,f7897367-bb3b-4599-8184-b8941e889c9c,456355,277779,110,Lilbourne,River Avon,1972-04-27,,2088,2042,54102,Active,"",-1.173227,52.39513,624296.448765224,5806557.21663031,0,0,0,0,0,1,0,0,0,1
fc5e2495-e6bf-4b91-bf05-547b8ce5fa8c,fc5e2495-e6bf-4b91-bf05-547b8ce5fa8c,537225,173255,67.7,Catford,"",1977-12-01,,4370TH,7320,39056,Active,"",-0.026931,51.441668,706611.583411316,5703135.37010374,0,0,0,0,0,0,0,0,0,0
c15cb7f2-77d1-4cc2-8742-5adead1be2b4,c15cb7f2-77d1-4cc2-8742-5adead1be2b4,535893,246685,16,Whaddon,Whaddon Brook,1980-10-09,,033064,6281,33064,Active,"",-0.017376,52.101809,704271.342977525,5776559.00152064,1,0,0,0,0,0,0,0,0,0
af21bf6e-b55d-429b-a3b4-65e372f0cb58,af21bf6e-b55d-429b-a3b4-65e372f0cb58,593500,336584,49.3,Little Walsingham,River Stiffkey,1966-05-01,,034020,6100,,Active,"",0.874934,52.891864,760643.494366216,5867274.96372236,1,0,0,0,0,0,0,0,0,0
a5bf03e9-e63a-4cd5-8bc9-ab64c03808b9,a5bf03e9-e63a-4cd5-8bc9-ab64c03808b9,532503,213143,175.1,Hartham Park,River Beane,1979-08-01,,4890TH,7341,38030,Active,"",-0.079759,51.801234,701342.36276383,5742965.10751221,0,0,0,0,0,0,0,0,0,0
3c66c370-e349-4093-a596-9671726bdcba,3c66c370-e349-4093-a596-9671726bdcba,449106,88617,,Carisbrooke,Lukely Brook,1979-10-06,,050301004,,101003,Active,"",-1.306101,50.695132,619634.01608358,5617291.87797459,0,0,0,0,0,0,0,1,0,0
0daf6ff9-34de-454a-acd9-69f7a681231a,0daf6ff9-34de-454a-acd9-69f7a681231a,541524,252377,303,Burnt Mill,River Rhee,1962-10-01,,033021,6199,33021,Active,"",0.067146,52.151539,709824.802396249,5782329.60922612,1,0,0,0,0,0,0,0,0,0
fc053c40-2354-4f94-add2-1aa71fb0afc6,fc053c40-2354-4f94-add2-1aa71fb0afc6,535668,188039,1243,Low Hall,"",1980-01-04,,5380TH,7374,38023,Active,"",-0.043637,51.574894,704852.108439738,5717900.45328364,0,0,0,0,0,0,0,0,0,0
36b31933-6c0f-4c7b-af02-cc18c3f1c198,36b31933-6c0f-4c7b-af02-cc18c3f1c198,332260,524796,69,Threlkeld,River Glenderamackin,1969-04-01,,750504,5140,75007,Active,"",-3.050402,54.61374,496744.959578705,6051811.33684822,0,0,0,1,0,0,0,0,0,0
f0718c85-fbe6-4bb5-9a00-91ef53c38567,f0718c85-fbe6-4bb5-9a00-91ef53c38567,356042,555756,,Hynam Bridge,River Gelt,1995-07-28,,763201,5074,,Active,"",-2.686891,54.894577,520081.570212858,6083105.04690236,0,0,0,0,0,0,1,0,0,0
6dba8818-bd17-424e-8568-eb699874e76a,6dba8818-bd17-424e-8568-eb699874e76a,551533,185330,49.7,Bretons Farm,"",1965-07-01,,5541TH,7383,37019,Active,"",0.183966,51.546517,720757.061454574,5715408.16886269,0,0,0,0,0,0,0,0,0,0
14846041-47d6-49c2-8419-f70fc3bbe1b5,14846041-47d6-49c2-8419-f70fc3bbe1b5,241935,89835,31.1,Roadford Comp,River Wolf,1988-03-31,,SX48F013,,,Active,"",-4.238978,50.686638,412478.45348452,5615710.98253499,0,0,0,0,0,0,0,0,1,0
ea442d7a-f666-450a-a04f-449b7aec9edb,ea442d7a-f666-450a-a04f-449b7aec9edb,415109,141387,323.7,Amesbury,"",1965-02-01,,432130,3325,43005,Active,"",-1.78526,51.171523,584921.807646036,5669600.51960862,0,0,0,0,0,0,0,0,1,0
77d381c3-f098-4b67-b0d5-0e08a548fe0e,77d381c3-f098-4b67-b0d5-0e08a548fe0e,514914,182238,,"",River Brent,1988-11-30,,3870TH,7290,39131,Active,"",-0.344873,51.527366,684174.397130469,5711814.66269555,0,0,0,0,0,0,0,0,0,0
faba42fb-8de9-4e60-a4f8-47c8271320e3,faba42fb-8de9-4e60-a4f8-47c8271320e3,374605,295345,258,Burcote,River Worfe,1969-03-21,,2024,2016,54024,Active,"",-2.375983,52.555338,542306.766341026,5822990.32465105,0,0,0,0,0,1,0,0,0,1
d33ce11e-590d-4d44-af55-6a9b0c27e829,d33ce11e-590d-4d44-af55-6a9b0c27e829,349835,143849,,Fenny Castle,River Sheppey,1964-01-01,,521010,3054,52009,Active,"",-2.719229,51.191645,519620.299157279,5671174.34875847,0,0,0,0,0,0,0,0,1,0
23a70a2d-cdc4-4530-926c-5df5f72561d0,23a70a2d-cdc4-4530-926c-5df5f72561d0,430941,280088,,Coventry,River Sherbourne,2003-03-11,,2129,9085,,Active,"",-1.54648,52.417908,598850.369852515,5808514.53363569,0,0,0,0,0,1,0,0,0,1
8e8296b1-6e4d-49e3-a197-cfcd0962e1b3,8e8296b1-6e4d-49e3-a197-cfcd0962e1b3,525890,369850,,Victoria Mill,River Bain,1984-08-01,,030027,6060,,Active,"",-0.116351,53.2108,692555.933861892,5899602.68275465,1,0,0,0,0,0,0,0,0,0
6add4e80-29ba-4ff6-9e5a-233795d59b26,6add4e80-29ba-4ff6-9e5a-233795d59b26,425923,513748,818.4,"",River Tees,1956-10-01,,F3501,8034,25001,Active,"",-1.601051,54.518355,590554.54798678,6042096.87320277,0,0,0,0,1,0,0,0,0,0
532a2993-7275-4050-8df4-b2314bc4f8e0,532a2993-7275-4050-8df4-b2314bc4f8e0,314902,521433,64,Scalehill,River Cocker,1974-03-18,,751612,5123,75016,Active,"",-3.318128,54.580895,479438.286882018,6048201.97423636,0,0,0,1,0,0,0,0,0,0
08c2cb5f-28c4-459d-960a-251dfaf541b0,08c2cb5f-28c4-459d-960a-251dfaf541b0,549055,221401,95.7,Bishops Stortford Castle,River Stort,2010-04-21,,5142TH,,,Active,"",0.163668,51.871265,717783.74439769,5751451.90366018,0,0,0,0,0,0,0,0,0,0
887950f8-6b72-48c3-8f25-b32c6a0e688b,887950f8-6b72-48c3-8f25-b32c6a0e688b,542907,121374,180.9,Goldbridge,River Ouse,1960-03-01,,352810006,1107,41005,Active,"",0.034122,50.974053,713001.296054892,5651322.66385171,0,0,0,0,0,0,0,1,0,0
fe57175f-cfc7-4fcb-bed7-6a146ef67336,fe57175f-cfc7-4fcb-bed7-6a146ef67336,445799,80130,5.2,Atherfield,Atherfield Brook,1997-04-03,,050601011,9171,,Active,"",-1.353966,50.619085,616441.583471887,5608760.08662197,0,0,0,0,0,0,0,1,0,0
aaac507d-5e62-474f-815d-c0b46aea04e8,aaac507d-5e62-474f-815d-c0b46aea04e8,448247,456080,516,Skip Br. K.Hammerton,River Nidd,1979-05-01,,F2102,8186,27062,Active,"",-1.265485,53.998494,613695.415760495,5984746.53578686,0,0,1,0,0,0,0,0,0,0
3ab02013-e0a1-4215-96f2-22f078b21f21,3ab02013-e0a1-4215-96f2-22f078b21f21,555222,171842,191.4,Hawley,River Darent,1963-12-01,,451321001,,40012,Active,"",0.2312,51.424331,724631.244796167,5701968.02935953,0,0,0,0,0,0,0,0,0,0
3d00208c-2ec1-4a84-9b0b-5b27b0fc6b7c,3d00208c-2ec1-4a84-9b0b-5b27b0fc6b7c,510312,177840,61.7,"",River Crane,1978-04-03,,3660TH,7276,39057,Active,"",-0.412558,51.488753,679631.972690244,5707353.10331291,0,0,0,0,0,0,0,0,0,0
6b62b651-1922-40b1-b2dc-b487a77c55b4,6b62b651-1922-40b1-b2dc-b487a77c55b4,420805,293705,799,Lea Marston Lakes,River Tame,1981-11-01,,4080,2134,28080,Active,"",-1.694665,52.5408,588526.110357366,5821990.83041195,0,0,1,0,0,0,0,0,0,0
2b62e149-59e0-47e9-8650-dabee432da82,2b62e149-59e0-47e9-8650-dabee432da82,359775,268525,1135,Tenbury,River Teme,1956-10-01,,2008,2005,54008,Active,"",-2.591467,52.313342,527849.714576525,5795968.50671528,0,0,0,0,0,1,0,0,0,1
52814202-3a6e-475d-a6ee-ee5050b9342d,52814202-3a6e-475d-a6ee-ee5050b9342d,492880,324600,,Colsterworth,River Witham,1978-10-03,,030017,6051,30017,Active,"",-0.623462,52.810947,660173.791918801,5853887.29422186,1,0,0,0,0,0,0,0,0,0
ce975340-e8ff-4b3d-bfc5-7ba57026ac22,ce975340-e8ff-4b3d-bfc5-7ba57026ac22,522646,216944,98.7,Fulling Mill,River Mimram,1955-08-01,,4770TH,7335,38011,Active,"",-0.221289,51.837638,691431.683149138,5746631.19410853,0,0,0,0,0,0,0,0,0,0
a19fe1fc-0e4d-4e1f-88dd-7667af4b3d9d,a19fe1fc-0e4d-4e1f-88dd-7667af4b3d9d,358748,392213,154,Causey Bridges,Sankey Brook,1977-01-01,,694039,5031,69030,Active,"",-2.622247,53.425074,525101.407959394,5919624.65642952,0,0,0,1,0,0,0,0,0,0
d1df8d19-d1f7-4e83-8aa6-75820613be72,d1df8d19-d1f7-4e83-8aa6-75820613be72,454205,297325,183.9,Littlethorpe,River Soar,1971-08-01,,4082,2136,28082,Active,"",-1.201646,52.571046,621875.698385559,5826073.74784159,0,0,1,0,0,0,0,0,0,0
ef76b105-7412-45fc-976d-972c1f7e185a,ef76b105-7412-45fc-976d-972c1f7e185a,422700,199320,76.9,Lechlade,River Leach,1972-10-01,,0890TH,,39042,Active,"",-1.672989,51.692172,591721.671526577,5727635.14865416,0,0,0,0,0,0,0,0,0,0
ef76b105-7412-45fc-976d-972c1f7e185a_SU29_94,ef76b105-7412-45fc-976d-972c1f7e185a,420565,199295,,Willow Tree Farm,"",2002-10-01,,SU29_94,,,Active,"",-1.703877,51.692029,589587.0912411,5727580.89136219,0,0,0,0,0,0,0,0,0,0
183111ef-5afe-463b-8934-30889ba56be9,183111ef-5afe-463b-8934-30889ba56be9,515605,263136,137.5,Meagre Farm,River Kym,1960-05-01,,033012,6155,33012,Active,"",-0.307826,52.254252,683753.418571678,5792732.19389885,1,0,0,0,0,0,0,0,0,0
655a16a0-8498-4b83-a8f6-6816952b2262,655a16a0-8498-4b83-a8f6-6816952b2262,428076,434048,692,Armley,River Aire,1972-01-01,,F1707,8009,27028,Active,"",-1.575189,53.801967,593835.50020886,5962430.39489388,0,0,1,0,0,0,0,0,0,0
c73055c6-f8a9-4a56-81c7-b62af188f82a,c73055c6-f8a9-4a56-81c7-b62af188f82a,606393,336042,,Hunworth,River Glaven,2000-07-20,,034052,,,"",Data Temporarily Suspended,1.065955,52.882209,773547.424385871,5866912.59022258,1,0,0,0,0,0,0,0,0,0
849b6df0-9cb0-4acc-b42e-59fc1071cb65,849b6df0-9cb0-4acc-b42e-59fc1071cb65,413985,350725,148.5,Ilam,River Manifold,1968-04-09,,4031,2113,28031,Active,"",-1.792803,53.053591,580913.432930091,5878913.39583199,0,0,1,0,0,0,0,0,0,0
f9fcfbc0-af1b-46f6-bf20-6d8aedc1c72f,f9fcfbc0-af1b-46f6-bf20-6d8aedc1c72f,252770,101392,71.1,Gribbleford Bridge,River Lew,1988-02-22,,SS50F007,3121,50008,Active,"",-4.090328,50.793341,423153.68330799,5627410.64109254,0,0,0,0,0,0,0,0,1,0
a1136eb6-a447-4f77-89f6-5cb8d556898c,a1136eb6-a447-4f77-89f6-5cb8d556898c,384491,227878,9895,Haw Bridge,River Severn,1975-09-25,,2057,2031,54057,Active,"",-2.227052,51.94917,553122.994657936,5755666.95754752,0,0,0,0,0,1,0,0,0,1
01d20c0f-8352-412f-8416-6a164f2381f4,01d20c0f-8352-412f-8416-6a164f2381f4,451115,132505,,Easton,River Itchen,1999-07-22,,152204002,1054,42016,Active,"",-1.271532,51.089585,621048.340399177,5661208.10390345,0,0,0,0,0,0,0,1,0,0
f4a37857-9d23-4ab2-af0d-81171ad0d52a,f4a37857-9d23-4ab2-af0d-81171ad0d52a,363745,177204,149,Frenchay,Bristol Frome,1961-09-01,,530270,3036,53006,Active,"",-2.523597,51.492605,533073.703945421,5704714.34388462,0,0,0,0,0,1,0,0,0,1
1c1e42b5-f8e3-4811-b5cc-37330e028d61,1c1e42b5-f8e3-4811-b5cc-37330e028d61,547087,251473,114,Stapleford,River Granta,1949-02-16,,033053,6195,33053,Active,"",0.148004,52.141965,715401.202196702,5781502.21016591,1,0,0,0,0,0,0,0,0,0
976c372b-8d8d-4dc7-8673-bbbc707423c5,976c372b-8d8d-4dc7-8673-bbbc707423c5,506029,164997,90.1,Addlestone,"",1991-01-09,,2989TH,7225,39128,Active,"",-0.478063,51.374134,675523.857694462,5694450.08849151,0,0,0,0,0,0,0,0,0,0
3db09b08-5c7e-4f20-9363-2691eba109f8,3db09b08-5c7e-4f20-9363-2691eba109f8,488215,240814,277.1,Willen,River Ouzel,1962-01-01,,033015,6165,33015,Active,"",-0.714748,52.058687,656668.455350501,5770030.16580459,1,0,0,0,0,0,0,0,0,0
c257f8de-5cf1-4c1f-9b46-deea2006d745,c257f8de-5cf1-4c1f-9b46-deea2006d745,448148,196667,234,Abingdon,River Ock,1962-10-01,,1790TH,,39081,Active,"",-1.305216,51.666719,617205.954438773,5725330.729641,0,0,0,0,0,0,0,0,0,0
272fc811-86a6-4abc-b6e0-7ee3661744cb,272fc811-86a6-4abc-b6e0-7ee3661744cb,473665,270785,58,Brixworth,River Nene,1970-11-06,,032026,6218,,Active,"",-0.920416,52.330212,641703.890101355,5799802.30722577,1,0,0,0,0,0,0,0,0,0
27c3e7a3-3357-478d-bdd5-17a3739cbc2c,27c3e7a3-3357-478d-bdd5-17a3739cbc2c,456875,132346,71.2,Borough Bridge,Candover Stream,1970-10-01,,152203001,1050,42009,Active,"",-1.189322,51.087614,626810.681233484,5661127.3384976,0,0,0,0,0,0,0,1,0,0
b401b1e3-c946-4a3e-bca3-3427e64eebba,b401b1e3-c946-4a3e-bca3-3427e64eebba,392065,237238,2674,Bredon,River Avon,1988-01-01,,2128,2056,54089,Active,"",-2.117073,52.033483,560567.606459065,5765130.2217438,0,0,0,0,0,1,0,0,0,1
2836432d-1548-49d1-9330-dd4ce973a3e0,2836432d-1548-49d1-9330-dd4ce973a3e0,595682,285495,277.8,Bridgham,River Thet,1967-06-01,,033044,6265,33044,Active,"",0.877025,52.432388,763536.346452266,5816203.52781896,1,0,0,0,0,0,0,0,0,0
52cf243f-5610-421a-94d4-f3b715fcef81,52cf243f-5610-421a-94d4-f3b715fcef81,537805,246605,8.6,Meldreth,River Mel,1964-11-04,,033083,,,Active,"",0.010489,52.100617,706184.808090774,5776505.28012735,1,0,0,0,0,0,0,0,0,0
6aff06c9-d547-4ee4-b62e-eee5e5efa01b,6aff06c9-d547-4ee4-b62e-eee5e5efa01b,579291,224292,139.2,Stisted,River Blackwater,1969-06-01,,037017,6142,37017,Active,"",0.603907,51.88834,747986.380796682,5754759.23442412,1,0,0,0,0,0,0,0,0,0
f3536ad3-46f4-4882-a605-260958220d85,f3536ad3-46f4-4882-a605-260958220d85,602441,242918,156,Hadleigh,River Brett,1962-10-01,,036005,6082,36005,Active,"",0.950823,52.047662,770885.766351347,5773708.85050185,1,0,0,0,0,0,0,0,0,0
efe2509e-d4c4-42a8-ae09-dcc1ffcbfe67,efe2509e-d4c4-42a8-ae09-dcc1ffcbfe67,527990,164710,1.1,Carshalton,"",1956-09-27,,4159TH,7302,39133,Active,"",-0.162812,51.367034,697491.78665654,5694462.80387078,0,0,0,0,0,0,0,0,0,0
0e04bb35-f2a5-4f5e-9e4c-3ffc9d6d4af2,0e04bb35-f2a5-4f5e-9e4c-3ffc9d6d4af2,250065,99917,20.3,Norley Bridge,"",1988-09-21,,SX59F053,3111,50009,Active,"",-4.128077,50.779392,420469.537364118,5625899.49135642,0,0,0,0,0,0,0,0,1,0
1aa41da2-0712-475e-beeb-a22df0cb7bfc,1aa41da2-0712-475e-beeb-a22df0cb7bfc,223169,70322,8.3,Siblyback Weir,Trib (Fowey),1973-08-13,,SX27F009,,,Active,"",-4.495089,50.505924,393982.249720099,5595951.64141367,0,0,0,0,0,0,0,0,1,0
78f44c69-5edc-486a-8c14-1f59391fb7e8,78f44c69-5edc-486a-8c14-1f59391fb7e8,404107,550791,118,Eddys Bridge,River Derwent,1954-10-01,,023002,8376,23002,Active,"",-1.937552,54.851887,568212.048085014,6078826.90238345,0,0,0,0,1,0,0,0,0,0
64ef32d2-8077-46a8-9217-9194fb18f8bd,64ef32d2-8077-46a8-9217-9194fb18f8bd,483673,146263,191,Farnham,River Wey,1978-02-01,,3020TH,,39078,Active,"",-0.80355,51.20945,653421.018339044,5675409.56029276,0,0,0,0,0,0,0,0,0,0
9c323633-3c7f-4e96-b93e-980109bf97e8,9c323633-3c7f-4e96-b93e-980109bf97e8,646586,287336,43.8,Hulver Bridge,Hundred River,1975-05-08,,035021,,,Active,"",1.625711,52.428341,814430.108775487,5818750.86039532,1,0,0,0,0,0,0,0,0,0
f120647f-1a02-4597-8ba7-3cd7a1c90635,f120647f-1a02-4597-8ba7-3cd7a1c90635,386349,239041,6850,Saxons Lode,River Severn,1970-06-05,,2032,2022,54032,Active,"",-2.200467,52.049581,554827.284098844,5766854.4363638,0,0,0,0,0,1,0,0,0,1
0e11ff44-2d10-4460-9b0f-1d9278be185f,0e11ff44-2d10-4460-9b0f-1d9278be185f,359648,97644,,Maiden Newton,"",2014-04-30,,445310,3278,,Active,"",-2.573669,50.77696,530058.617132466,5625109.10936991,0,0,0,0,0,0,0,0,1,0
02d5c02d-c2a7-4b68-8cdf-402fc404fa76,02d5c02d-c2a7-4b68-8cdf-402fc404fa76,329334,478043,,Allotments,Town Beck,2004-08-13,,736417,9242,,Active,"",-3.084556,54.193244,494483.095284002,6005025.73137813,0,0,0,1,0,0,0,0,0,0
2ec41641-3875-4613-8d97-2ddbe6b1a4ad,2ec41641-3875-4613-8d97-2ddbe6b1a4ad,626930,163400,100.5,Plucks Gutter,River Stour,2007-07-25,,654802012,,,Active,"",1.255693,51.324401,796473.443017354,5694503.37255327,0,0,0,0,0,0,0,1,0,0
2ec41641-3875-4613-8d97-2ddbe6b1a4ad_644801001,2ec41641-3875-4613-8d97-2ddbe6b1a4ad,627131,163892,,Plucks Gutter,"",1981-10-14,,644801001,,,Active,"",1.258886,51.328738,796667.76903913,5694998.32009554,0,0,0,0,0,0,0,1,0,0
bd2496a3-6740-41be-b251-6d2b231a55ab,bd2496a3-6740-41be-b251-6d2b231a55ab,632162,253350,163.1,Naunton Hall,River Deben,1964-08-01,,035002,,35002,Active,"",1.390579,52.129648,800471.675397582,5784554.07950066,1,0,0,0,0,0,0,0,0,0
cdeb0ab1-6c05-43f5-aa47-cb6248d8ffee,cdeb0ab1-6c05-43f5-aa47-cb6248d8ffee,313082,528089,117,Southwaite Bridge,River Cocker,1967-12-01,,751613,5129,75004,Active,"",-3.348254,54.640384,477523.947345389,6054830.61086724,0,0,0,1,0,0,0,0,0,0
8736a5d8-133a-46cc-b277-b6a20b7fd88c,8736a5d8-133a-46cc-b277-b6a20b7fd88c,365289,452890,25.1,Footholme Flume,River Dunsop,1995-10-23,,711086,,71015,Active,"",-2.530637,53.970893,530787.883137766,5980385.19632858,0,0,0,1,0,0,0,0,0,0
8736a5d8-133a-46cc-b277-b6a20b7fd88c_573719,8736a5d8-133a-46cc-b277-b6a20b7fd88c,365277,452902,,Footholme,"",1997-02-04,,573719,,,Active,"",-2.530821,53.971,530775.734894906,5980397.02107401,0,0,0,1,0,0,0,0,0,0
912a6d1f-035b-4d82-b83e-a09788190c61,912a6d1f-035b-4d82-b83e-a09788190c61,514241,239310,120,Shefford,River Flit,1966-10-01,,033028,6077,33028,Active,"",-0.335802,52.040422,682717.88299642,5768884.53683923,1,0,0,0,0,0,0,0,0,0
7b8eea56-6cc1-42dc-8a18-c80bb003a37c,7b8eea56-6cc1-42dc-8a18-c80bb003a37c,356452,427783,128,Blue Bridge,River Darwen,1976-01-01,,713122,5015,71014,Active,"",-2.661773,53.74458,522306.081989923,5955157.20965513,0,0,0,1,0,0,0,0,0,0
817d17c7-3e01-4bc9-a7b3-8e2a5c6d0e5b,817d17c7-3e01-4bc9-a7b3-8e2a5c6d0e5b,236849,62571,135.5,Pillaton Mill,River Lynher,1966-03-01,,SX36F069,3184,47004,Active,"",-4.298958,50.44025,407761.827865435,5588387.73268002,0,0,0,0,0,0,0,0,1,0
439b85d9-21c4-4ae9-839f-5b31d1625aba,439b85d9-21c4-4ae9-839f-5b31d1625aba,409725,130794,220.6,Wilton,River Nadder,1966-01-01,,432210,3329,43006,Active,"",-1.862553,51.076386,579681.978930539,5658934.72411484,0,0,0,0,0,0,0,0,1,0
b49af755-891b-490a-8a2b-0896237f1936,b49af755-891b-490a-8a2b-0896237f1936,626693,319368,313,Horstead,River Bure,1974-02-01,,034019,,34019,Active,"",1.35556,52.724414,794085.565191956,5850516.73940109,1,0,0,0,0,0,0,0,0,0
141185ba-bb77-4239-849f-d17a01933e3b,141185ba-bb77-4239-849f-d17a01933e3b,479106,481952,68.6,"",Pickering Beck,1977-07-13,,F2515,8330,27056,Active,"",-0.788071,54.227169,644189.069424877,6011055.70644271,0,0,1,0,0,0,0,0,0,0
2c7641ce-5071-4dbb-a20f-1c7d32a1945d,2c7641ce-5071-4dbb-a20f-1c7d32a1945d,416945,291465,408,Water Orton,River Tame,1955-09-06,,4003,2098,28003,Active,"",-1.751692,52.520795,584697.258385473,5819697.33107001,0,0,1,0,0,0,0,0,0,0
58f572ff-9fd1-4ebd-a05d-faf9e5c68fb5,58f572ff-9fd1-4ebd-a05d-faf9e5c68fb5,431570,470949,,Alma Weir,River Skell,1984-07-17,,F2216,8006,27086,"",Data Temporarily Suspended,-1.518334,54.133409,596808.353721475,5999379.45374691,0,0,1,0,0,0,0,0,0,0
06e0b3c2-c771-4b8b-84e6-5846c64b5f16,06e0b3c2-c771-4b8b-84e6-5846c64b5f16,583292,187035,,Prittlewell,Prittle Brook,2000-07-13,,037052,,,Active,"",0.642391,51.552418,752499.697316014,5717548.26248088,1,0,0,0,0,0,0,0,0,0
7391ff74-74f1-4e29-927e-1a472e7925cc,7391ff74-74f1-4e29-927e-1a472e7925cc,450575,86465,,Blackwater,River Medina,1989-04-20,,050301008,,,Active,"",-1.285598,50.675655,621132.13381424,5615159.60426228,0,0,0,0,0,0,0,1,0,0
d32a665b-92bd-450e-98fb-2dc9398ac805,d32a665b-92bd-450e-98fb-2dc9398ac805,550039,224731,20.5,Stansted Springs,River Stort,1969-06-01,,5106TH,,38016,Active,"",0.179397,51.900919,718722.159124109,5754796.01720418,0,0,0,0,0,0,0,0,0,0
fd0f850f-2f54-46c0-ad53-1c56361d930c,fd0f850f-2f54-46c0-ad53-1c56361d930c,348162,455371,28.5,Galgate,River Conder,1976-02-01,,724836,5054,72014,Active,"",-2.792131,53.991752,513628.402180597,5982623.98456821,0,0,0,1,0,0,0,0,0,0
b7d7ad0f-c16b-485d-9dcc-f4f845995a11,b7d7ad0f-c16b-485d-9dcc-f4f845995a11,450988,460295,167.6,Newton-On-Ouse,River Kyle,1979-05-03,,F2480,9143,27060,Active,"",-1.222971,54.036111,616376.828776434,5989000.31253887,0,0,1,0,0,0,0,0,0,0
2c8a3836-a281-4a0e-b196-e7be47c80ddd,2c8a3836-a281-4a0e-b196-e7be47c80ddd,386727,86839,414.4,East Stoke Flume,"",1992-01-01,,445910,3275,,Active,"",-2.189221,50.681052,557280.821972707,5614671.18946636,0,0,0,0,0,0,0,0,1,0
13d2950b-9382-4c47-a378-875a2e2f10de,13d2950b-9382-4c47-a378-875a2e2f10de,406706,601600,346,Rothbury,River Coquet,2021-04-25,,022009,8173,22009,Active,"",-1.895897,55.308429,570083.514739225,6129669.21466044,0,0,0,0,1,0,0,0,0,0
13e619ad-ce41-428c-94a6-a93e550e64f4,13e619ad-ce41-428c-94a6-a93e550e64f4,390555,573231,1007.5,Reaverhill,River North Tyne,1959-10-01,,023003,8166,23003,Active,"",-2.149371,55.053461,554340.430318428,6101071.18650045,0,0,0,0,1,0,0,0,0,0
02c2361b-a383-4dfa-86f6-1475a11a9ccf,02c2361b-a383-4dfa-86f6-1475a11a9ccf,366410,101463,,Cerne Abbas Kettle Bridge,River Cerne,,,445532,,,Active,"",-2.478118,50.811733,536768.147982887,5629019.01565068,0,0,0,0,0,0,0,0,1,0
bdf4b017-b900-4dd5-b889-8990d9a2ee36,bdf4b017-b900-4dd5-b889-8990d9a2ee36,390858,142759,112.4,Norton Bavant,River Wylye,1971-07-01,,432320,3326,43012,Active,"",-2.132172,51.183981,560653.50395683,5670642.50934855,0,0,0,0,0,0,0,0,1,0
36515ff1-a12b-4834-967a-582032db3775,36515ff1-a12b-4834-967a-582032db3775,589241,280188,128.7,County Bridge Euston,Little Ouse River,1948-09-20,,033011,,33011,Active,"",0.779403,52.387,757167.225818694,5810805.98396029,1,0,0,0,0,0,0,0,0,0
f25278f2-f4b5-4d32-86b1-e00e6cd33a6f,f25278f2-f4b5-4d32-86b1-e00e6cd33a6f,506630,376550,,Langworth,Barlings Eau,1980-07-03,,030902,6052,30002,Active,"",-0.402379,53.27521,673199.916533563,5906033.91580873,1,0,0,0,0,0,0,0,0,0
1dd7b0f3-1823-4183-8286-77154d751b96,1dd7b0f3-1823-4183-8286-77154d751b96,553074,262807,76.4,Lode,Quy Water,1965-01-01,,033056,6272,33056,Active,"",0.240538,52.242159,721232.857265544,5792920.92700365,1,0,0,0,0,0,0,0,0,0
c1e5e157-2320-48a9-9bb7-18db98d85fcb,c1e5e157-2320-48a9-9bb7-18db98d85fcb,271879,47584,102.3,Loddiswell,River Avon,1971-02-28,,SX74F051,3218,46008,Active,"",-3.800826,50.314236,442982.436949932,5573876.5027004,0,0,0,0,0,0,0,0,1,0
8f4ea118-cb20-4068-a54b-1c59c9e028f7,8f4ea118-cb20-4068-a54b-1c59c9e028f7,385215,530915,,Langdon,Langdon Beck,1969-10-01,,F3589,,25011,Active,"",-2.230773,54.673067,549605.116697898,6058683.30883514,0,0,0,0,1,0,0,0,0,0
20d3f938-c200-4435-b376-b860e3d14432,20d3f938-c200-4435-b376-b860e3d14432,567635,112005,,Wallers,Waller'S Haven,2003-05-15,,351220099,,,Active,"",0.381727,50.883217,737861.519508288,5642287.37095114,0,0,0,0,0,0,0,1,0,0
c305da5e-a910-49d8-b07c-434b1d1ee109,c305da5e-a910-49d8-b07c-434b1d1ee109,368249,198731,,"","",2000-10-17,,542349,9370,54088,Active,"",-2.460679,51.686426,537282.689134173,5726300.23479033,0,0,0,0,0,1,0,0,0,1
fa869369-4a45-4377-8d05-ec4f3a530e46,fa869369-4a45-4377-8d05-ec4f3a530e46,384978,530916,25.1,Harwood,Harwood Beck,1969-09-01,,F3581,8093,25012,Active,"",-2.234448,54.673069,549368.129338898,6058680.9416191,0,0,0,0,1,0,0,0,0,0
7963009e-7d60-45d9-9ab6-35c176111128,7963009e-7d60-45d9-9ab6-35c176111128,630043,143019,49.5,Crabble Mill,River Dour,1976-01-06,,654019001,,40033,Active,"",1.287219,51.140192,799865.478169789,5674158.23326769,0,0,0,0,0,0,0,1,0,0
c126ae2b-2a89-4867-ad78-2a0685b93678,c126ae2b-2a89-4867-ad78-2a0685b93678,596249,226113,238.2,Lexden,River Colne,1959-10-01,,037005,6140,37005,Active,"",0.851047,51.898986,764923.593718183,5756814.0658785,1,0,0,0,0,0,0,0,0,0
1b5206df-b717-411b-982c-9b6b26418156,1b5206df-b717-411b-982c-9b6b26418156,515394,175197,35,Mogden,Duke Of Northumberland'S River,1977-12-01,,3695TH,,,Active,"",-0.340257,51.463986,684750.720846487,5704779.30426303,0,0,0,0,0,0,0,0,0,0
3c6b6e7d-78d1-414c-899e-59a2bbabdce4,3c6b6e7d-78d1-414c-899e-59a2bbabdce4,505990,130924,91.6,Drungewick,River Lox,1971-12-14,,254240009,,41025,Active,"",-0.488686,51.067869,675948.885990196,5660372.61733284,0,0,0,0,0,0,0,1,0,0
2629abeb-e504-49f7-9996-080f37e15930,2629abeb-e504-49f7-9996-080f37e15930,506850,164830,909,Weybridge,River Wey,1979-03-16,,3090TH,7243,39079,Active,"",-0.466322,51.37248,676347.257887672,5694294.36469452,0,0,0,0,0,0,0,0,0,0
08a56e86-d214-4288-8726-8de31eb55766,08a56e86-d214-4288-8726-8de31eb55766,445832,241068,199,Banbury,River Cherwell,1966-12-01,,1420TH,7060,39026,Active,"",-1.332824,52.066089,614279.995430823,5769700.38435152,0,0,0,0,0,0,0,0,0,0
99ef9f3b-c468-4bd7-90b9-ff505be46b98,99ef9f3b-c468-4bd7-90b9-ff505be46b98,366757,371787,407,Rudheath,River Dane,1976-01-01,,681210,5121,68003,Active,"",-2.499577,53.242047,533395.335940892,5899313.65404023,0,0,0,1,0,0,0,0,0,0
75dfeed5-d047-42f2-aac2-64574ed6d4e6,75dfeed5-d047-42f2-aac2-64574ed6d4e6,504040,369510,21.2,Heighington Beck,Heighington Beck,1976-03-16,,030013,6061,30013,Active,"",-0.443501,53.212466,670708.195204206,5898956.95063992,1,0,0,0,0,0,0,0,0,0
617d7d56-051e-4357-bd12-5ed0a71fa78d,617d7d56-051e-4357-bd12-5ed0a71fa78d,538520,209830,760.1,Rye Bridge,"",1993-08-04,,5280TH,7357,38031,Active,"",0.006126,51.770008,707405.882349907,5739734.14405051,0,0,0,0,0,0,0,0,0,0
09613520-a40c-48eb-8260-6266468f5cf3,09613520-a40c-48eb-8260-6266468f5cf3,487300,276290,58.3,Slade Brook,"",1988-11-08,,032033,6113,32019,Active,"",-0.718949,52.377693,655263.663700422,5805496.1918534,1,0,0,0,0,0,0,0,0,0
daca0d8d-b3de-4945-81fb-b01f249210f6,daca0d8d-b3de-4945-81fb-b01f249210f6,538710,199982,38.4,Sewardstone Road,"",1971-06-12,,5329TH,7364,38020,Active,"",0.004958,51.681471,707730.986085323,5729887.09233376,0,0,0,0,0,0,0,0,0,0
e3990cb0-3ae8-4cd4-b009-55290be90c92,e3990cb0-3ae8-4cd4-b009-55290be90c92,485220,122904,153.9,Iping Mill,River Rother,1966-11-01,,254340011,1169,41011,Active,"",-0.786918,50.999224,655285.670164909,5652069.74973587,0,0,0,0,0,0,0,1,0,0
e3990cb0-3ae8-4cd4-b009-55290be90c92_318245,e3990cb0-3ae8-4cd4-b009-55290be90c92,485227,122920,,Iping Mill,"",1998-08-03,,318245,1169,,Active,"",-0.786815,50.999367,655292.41910919,5652085.86644874,0,0,0,0,0,0,0,1,0,0
aaf8fe03-f3db-43f4-8ce6-701ebfac9ca7,aaf8fe03-f3db-43f4-8ce6-701ebfac9ca7,366725,182210,78.5,Frampton Cotterell,Bristol Frome,1977-12-28,,530240,3029,53026,Active,"",-2.481149,51.537798,535984.959754667,5709760.40357605,0,0,0,0,0,1,0,0,0,1
aaf8fe03-f3db-43f4-8ce6-701ebfac9ca7_5302070SC,aaf8fe03-f3db-43f4-8ce6-701ebfac9ca7,366693,182230,,Frampton Cotterell Mill,"",1992-01-01,,5302070SC,,,Active,"",-2.481613,51.537976,535952.638942659,5709779.97140641,0,0,0,0,0,1,0,0,0,1
4a5d6a89-7891-451d-8c2f-0eba9ff7b71b,4a5d6a89-7891-451d-8c2f-0eba9ff7b71b,464864,123964,,West Meon,River Meon,1987-02-17,,152803002,,42030,Active,"",-1.076771,51.011405,634913.86433053,5652853.44514208,0,0,0,0,0,0,0,1,0,0
370cba4c-c28e-4063-aaea-a99575c408b6,370cba4c-c28e-4063-aaea-a99575c408b6,444135,331655,1177.5,Church Wilne,River Derwent,1973-05-01,,4067,2130,28067,Active,"",-1.345613,52.880546,611328.522282928,5860264.15346473,0,0,1,0,0,0,0,0,0,0
b69080d3-02f1-48d0-982c-0150b478a8f7,b69080d3-02f1-48d0-982c-0150b478a8f7,640622,276880,92.9,Holton,River Blyth,1970-05-01,,035013,,35013,Active,"",1.530667,52.337175,808609.02555977,5808208.74833552,1,0,0,0,0,0,0,0,0,0
e6f18d6b-f5ab-4e66-b9c6-4fe1172219c4,e6f18d6b-f5ab-4e66-b9c6-4fe1172219c4,395835,274635,,Wildmoor Flume,"",2004-06-24,,2898,9295,,Active,"",-2.06259,52.369737,563821.452517761,5802576.2036629,0,0,0,0,0,1,0,0,0,1
cd8c5956-30bd-4242-9d18-ce24ce0a3f30,cd8c5956-30bd-4242-9d18-ce24ce0a3f30,533302,248525,119.1,Wimpole,River Cam Or Rhee,1965-07-01,,033027,6196,33027,Active,"",-0.054461,52.118971,701654.561255266,5778363.47140358,1,0,0,0,0,0,0,0,0,0
cd8c5956-30bd-4242-9d18-ce24ce0a3f30_TL35_001,cd8c5956-30bd-4242-9d18-ce24ce0a3f30,532774,250554,,Wimpole Hall,"",1978-03-16,,TL35_001,,,Active,"",-0.061377,52.13733,701098.46824554,5780385.59325328,1,0,0,0,0,0,0,0,0,0
79515906-3efd-424e-8e32-0db1873cb3a3,79515906-3efd-424e-8e32-0db1873cb3a3,490145,181385,,Maidenhead,River Thames,2003-01-03,,2604TH,,39148,Active,"",-0.70203,51.52419,659414.321151743,5710622.72297875,0,0,0,0,0,0,0,0,0,0
5f23ee39-cca5-4cf3-a793-a3098db4b071,5f23ee39-cca5-4cf3-a793-a3098db4b071,366644,83888,7,Broadwey,River Wey,1975-09-01,,446020,3291,44009,Active,"",-2.473201,50.653707,537239.650654028,5611449.34079763,0,0,0,0,0,0,0,0,1,0
361ea25c-e13b-4577-8689-2f3bfc3199a2,361ea25c-e13b-4577-8689-2f3bfc3199a2,325506,389346,17.9,"",Arrowe Brook,2005-12-21,,685517,5002,68021,Active,"",-3.121735,53.395655,491905.200605171,5916292.25894599,0,0,0,1,0,0,0,0,0,0
ffe31960-febf-4c98-963d-6f23354add54,ffe31960-febf-4c98-963d-6f23354add54,373336,412222,36.9,Bradshaw Tennis Club,Bradshaw Brook,2000-08-12,,690470,,69046,Active,"",-2.404434,53.60586,539406.704052342,5939835.76870435,0,0,0,1,0,0,0,0,0,0
2cfe8824-6390-42cc-91c5-10718aa0ab03,2cfe8824-6390-42cc-91c5-10718aa0ab03,566865,231314,62.4,Copford Hall,River Pant,1962-11-27,,037016,6141,37016,Active,"",0.426925,51.955272,735460.968073183,5761611.84242073,1,0,0,0,0,0,0,0,0,0
e2db454d-9cdd-43b0-b47c-6fb047bd6fb4,e2db454d-9cdd-43b0-b47c-6fb047bd6fb4,435608,467045,914,Westwick,River Ure,1966-05-17,,F2202,8215,27007,Active,"",-1.456997,54.098061,600901.486782906,5995532.72472309,0,0,1,0,0,0,0,0,0,0
9e4f7156-b832-4882-86b6-7155d30ffced,9e4f7156-b832-4882-86b6-7155d30ffced,395799,187849,,Garsdon,Charlton Stream,1992-05-18,,530110,,,Active,"",-2.062027,51.589471,564979.054649635,5715796.39523135,0,0,0,0,0,1,0,0,0,1
7aec20ef-6d53-43e0-80dd-7431d5ce6495,7aec20ef-6d53-43e0-80dd-7431d5ce6495,256315,91647,16.6,Meldon,West Okement River,1975-12-31,,SX59F051,9341,,Active,"",-4.036259,50.706654,426829.362110391,5617716.64288061,0,0,0,0,0,0,0,0,1,0
6e354c27-1342-485c-acad-79b15e41dcf0,6e354c27-1342-485c-acad-79b15e41dcf0,407075,284715,74.3,Calthorpe Park,River Rea,1967-04-14,,4039,2115,28039,Active,"",-1.897294,52.460329,574921.239246947,5812811.02792725,0,0,1,0,0,0,0,0,0,0
f0ce59f5-6075-4861-8976-be2f44424535,f0ce59f5-6075-4861-8976-be2f44424535,350208,258942,365.9,Butts Bridge,River Lugg,1969-03-01,,055021,4006,55021,Active,"",-2.730375,52.226409,518416.359797871,5786254.80404025,0,0,0,0,0,1,0,0,0,1
ac5d441f-d997-4348-a8d1-9683503835e5,ac5d441f-d997-4348-a8d1-9683503835e5,383383,583187,,Bellingham,River North Tyne,2001-03-28,,023037,8019,,Active,"",-2.262219,55.142735,547026.631761645,6110923.4721608,0,0,0,0,1,0,0,0,0,0
486b6f10-b986-43dc-b2e8-1a83c15d4051,486b6f10-b986-43dc-b2e8-1a83c15d4051,352702,145798,18.2,"",River Axe,1994-06-01,,521210,3059,52001,Active,"",-2.678463,51.209414,522460.381934524,5673162.05816168,0,0,0,0,0,0,0,0,1,0
ca41ca6f-ae17-4788-bcee-b32c1a918983,ca41ca6f-ae17-4788-bcee-b32c1a918983,505920,362250,,Dunston Beck,Dunston Beck,1984-01-31,,030019,,,Active,"",-0.417763,53.146861,672689.913527118,5891722.55120795,1,0,0,0,0,0,0,0,0,0
24734dfe-df3d-43fc-acda-77cbdbc2988e,24734dfe-df3d-43fc-acda-77cbdbc2988e,535990,217444,136.6,Wadesmill,River Rib,1979-10-01,,4980TH,7344,38004,Active,"",-0.027533,51.839044,704770.852524576,5747314.59728965,0,0,0,0,0,0,0,0,0,0
3d09c454-540b-4fb3-a5fb-072c33cf8c4b,3d09c454-540b-4fb3-a5fb-072c33cf8c4b,358956,524434,,Cliburn,River Leith,2003-11-19,,760280,,,Active,"",-2.637025,54.613368,523441.659570812,6051829.31233608,0,0,0,0,0,0,1,0,0,0
e1571739-3d8f-46e9-8d88-54e72aa56f0a,e1571739-3d8f-46e9-8d88-54e72aa56f0a,572024,324168,5,Congham,Congham Brook,1992-06-01,,033072,,,Active,"",0.54952,52.787656,739335.58505582,5854556.83824476,1,0,0,0,0,0,0,0,0,0
ac400e1e-eff8-4029-9f6f-c73eb649b4bf,ac400e1e-eff8-4029-9f6f-c73eb649b4bf,348300,171564,23.3,Wraxall,Land Yeo,1971-01-01,,521510,,52015,Active,"",-2.745221,51.440693,517707.839534411,5698864.25809925,0,0,0,0,0,1,0,0,0,1
fa1df2df-6c46-45ec-9aad-331c095431cb,fa1df2df-6c46-45ec-9aad-331c095431cb,563088,270247,60.6,Fordham,River Snail,1960-07-15,,033050,6267,33050,Active,"",0.390665,52.306115,731145.947163158,5800500.80262467,1,0,0,0,0,0,0,0,0,0
75ed9d12-9ca5-4607-8658-c80b979a1310,75ed9d12-9ca5-4607-8658-c80b979a1310,512540,327116,9.6,Rippingale,Rippingale Running Dyke,1984-01-13,,030022,,,Active,"",-0.331042,52.829816,679800.741401276,5856677.26561004,1,0,0,0,0,0,0,0,0,0
37772543-7410-45ad-aa14-75d97aaffe1d,37772543-7410-45ad-aa14-75d97aaffe1d,383309,488292,10.2,Low Houses Nr. Hawes,Snaizeholme Beck,1966-06-01,,F2290,8127,27047,Active,"",-2.257904,54.289962,548304.94940398,6016037.76843795,0,0,1,0,0,0,0,0,0,0
b326bac6-9b5e-446c-bde5-2643a0eb5cac,b326bac6-9b5e-446c-bde5-2643a0eb5cac,458285,85325,,Burnt House,"",1982-10-25,,050101011,,101004,Active,"",-1.176674,50.664685,628857.766314699,5614123.73459232,0,0,0,0,0,0,0,1,0,0
b0d98d93-45de-40c1-a1cf-cd32484c3542_432120,b0d98d93-45de-40c1-a1cf-cd32484c3542,413353,155938,76,Upavon West,"",1971-10-01,,432120,3323,43017,Active,"",-1.809839,51.302406,582967.781819155,5684127.02519696,0,0,0,0,0,0,0,0,1,0
b0d98d93-45de-40c1-a1cf-cd32484c3542_432110,b0d98d93-45de-40c1-a1cf-cd32484c3542,413351,155948,86.2,Upavon East,"",1971-10-01,,432110,3324,43014,Active,"",-1.809868,51.302496,582965.597978101,5684137.00081055,0,0,0,0,0,0,0,0,1,0
3769621b-8599-4bcf-b5f9-1017619dbed2,3769621b-8599-4bcf-b5f9-1017619dbed2,503515,172315,,Staines Ash,River Ash,1995-06-29,,3110TH,7247,,Active,"",-0.512035,51.440376,672909.642010183,5701734.62990033,0,0,0,0,0,0,0,0,0,0
77b42c7f-1412-4ea1-8e85-7fc99b8ee3a3,77b42c7f-1412-4ea1-8e85-7fc99b8ee3a3,581279,117749,,Brede Weir,River Brede,1971-11-10,,556330002,,40025,Active,"",0.578338,50.9307,751430.86355097,5648217.79066051,0,0,0,0,0,0,0,1,0,0
e0cc2ab9-31be-4249-9568-65b76de876c2,e0cc2ab9-31be-4249-9568-65b76de876c2,542351,116107,34.6,Clappers Bridge,Bevern Stream,1969-10-01,,352711019,,41020,Active,"",0.02415,50.926858,712516.640668873,5646047.1779892,0,0,0,0,0,0,0,1,0,0
3435c742-67ba-42d0-8e82-b8bee647c87c,3435c742-67ba-42d0-8e82-b8bee647c87c,387232,86688,414.4,East Stoke Weir,Dorset Frome,1965-10-01,,445920,,,Active,"",-2.182068,50.679706,557787.821470391,5614527.07745576,0,0,0,0,0,0,0,0,1,0
